     2.11           OBSERVATION DATA    M (MIXED)           RINEX VERSION / TYPE
teqc  2019Feb25                         20230328 06:40:06UTCPGM / RUN BY / DATE 
gfzrnx-2.00-8219    FILE PROCESSING     20230328 065332 UTC COMMENT             
TLSE                                                        MARKER NAME         
10003M009                                                   MARKER NUMBER       
Automatic           CNES                                    OBSERVER / AGENCY   
6139R40106          TRIMBLE ALLOY       6.14                REC # / TYPE / VERS 
5129354206          TRM59800.00     NONE                    ANT # / TYPE        
        1.0530        0.0000        0.0000                  ANTENNA: DELTA H/E/N
  4627852.0570   119639.7550  4372993.3100                  APPROX POSITION XYZ 
    20    C1    C5    C6    C7    C8    D1    L1    L2    L5# / TYPES OF OBSERV 
          L6    L7    L8    P1    P2    S1    S2    S5    S6# / TYPES OF OBSERV 
          S7    S8                                          # / TYPES OF OBSERV 
Linux 2.6.32-573.12.1.x86_64|x86_64|gcc|Linux 64|=+         COMMENT             
teqc  2019Feb25                         20230328 06:40:02UTCCOMMENT             
teqc  2019Feb25     IGN-RGP             20230101 01:06:21UTCCOMMENT             
teqc  2019Feb25                         20230101 01:01:23UTCCOMMENT             
Linux 2.6.32-573.12.1.x86_64|x86_64|gcc -static|Linux 64|=+ COMMENT             
teqc  2019Feb25     CNES                20230101 01:01:19UTCCOMMENT             
teqc  2019Feb25                         20230101 01:01:18UTCCOMMENT             
  1.0530      (antenna height)                              COMMENT             
 +43.56069179 (latitude)                                    COMMENT             
  +1.48088713 (longitude)                                   COMMENT             
0207.190      (elevation)                                   COMMENT             
BIT 2 OF LLI FLAGS DATA COLLECTED UNDER A/S CONDITION       COMMENT             
10003M009 (COGO code)                                       COMMENT             
     1     1                                                WAVELENGTH FACT L1/2
    18                                                      LEAP SECONDS        
 SNR is mapped to RINEX snr flag value [0-9]                COMMENT             
  L1 & L2: min(max(int(snr_dBHz/6), 0), 9)                  COMMENT             
teqc edited: all Beidou satellites excluded                 COMMENT             
teqc edited: all QZSS satellites excluded                   COMMENT             
teqc edited: all IRNSS satellites excluded                  COMMENT             
teqc_2019 edited: GLONASS # 25 - 30 excluded                COMMENT             
GFZRNX.NUM_EPOCHS: 10                                       COMMENT
    33                                                      # OF SATELLITES     
   E02    10    10    10    10    10    10    10          10PRN / # OF OBS      
          10    10    10                10          10    10PRN / # OF OBS      
          10    10                                          PRN / # OF OBS      
   E04    10    10    10    10    10    10    10          10PRN / # OF OBS      
          10    10    10                10          10    10PRN / # OF OBS      
          10    10                                          PRN / # OF OBS      
   E10    10    10    10    10    10    10    10          10PRN / # OF OBS      
          10    10    10                10          10    10PRN / # OF OBS      
          10    10                                          PRN / # OF OBS      
   E11    10    10    10    10    10    10    10          10PRN / # OF OBS      
          10    10    10                10          10    10PRN / # OF OBS      
          10    10                                          PRN / # OF OBS      
   E12    10    10    10    10    10    10    10          10PRN / # OF OBS      
          10    10    10                10          10    10PRN / # OF OBS      
          10    10                                          PRN / # OF OBS      
   E19    10    10    10    10    10    10    10          10PRN / # OF OBS      
          10    10    10                10          10    10PRN / # OF OBS      
          10    10                                          PRN / # OF OBS      
   E24    10    10    10    10    10    10    10          10PRN / # OF OBS      
          10    10    10                10          10    10PRN / # OF OBS      
          10    10                                          PRN / # OF OBS      
   E25    10    10    10    10    10    10    10          10PRN / # OF OBS      
          10    10    10                10          10    10PRN / # OF OBS      
          10    10                                          PRN / # OF OBS      
   E33    10    10    10    10    10    10    10          10PRN / # OF OBS      
          10    10    10                10          10    10PRN / # OF OBS      
          10    10                                          PRN / # OF OBS      
   G01    10    10                      10    10    10    10PRN / # OF OBS      
                                  10    10    10    10      PRN / # OF OBS      
                                                            PRN / # OF OBS      
   G03    10    10                      10    10    10    10PRN / # OF OBS      
                                  10    10    10    10      PRN / # OF OBS      
                                                            PRN / # OF OBS      
   G08    10    10                      10    10    10    10PRN / # OF OBS      
                                  10    10    10    10      PRN / # OF OBS      
                                                            PRN / # OF OBS      
   G10    10    10                      10    10    10    10PRN / # OF OBS      
                                  10    10    10    10      PRN / # OF OBS      
                                                            PRN / # OF OBS      
   G14    10    10                      10    10    10    10PRN / # OF OBS      
                                  10    10    10    10      PRN / # OF OBS      
                                                            PRN / # OF OBS      
   G17    10                            10    10    10      PRN / # OF OBS      
                                  10    10    10            PRN / # OF OBS      
                                                            PRN / # OF OBS      
   G21    10                            10    10    10      PRN / # OF OBS      
                                  10    10    10            PRN / # OF OBS      
                                                            PRN / # OF OBS      
   G22    10                            10    10    10      PRN / # OF OBS      
                                  10    10    10            PRN / # OF OBS      
                                                            PRN / # OF OBS      
   G27    10    10                      10    10    10    10PRN / # OF OBS      
                                  10    10    10    10      PRN / # OF OBS      
                                                            PRN / # OF OBS      
   G32    10    10                      10    10    10    10PRN / # OF OBS      
                                  10    10    10    10      PRN / # OF OBS      
                                                            PRN / # OF OBS      
   R01    10                            10    10    10      PRN / # OF OBS      
                            10    10    10    10            PRN / # OF OBS      
                                                            PRN / # OF OBS      
   R06    10                            10    10            PRN / # OF OBS      
                            10          10                  PRN / # OF OBS      
                                                            PRN / # OF OBS      
   R07    10                            10    10    10      PRN / # OF OBS      
                            10    10    10    10            PRN / # OF OBS      
                                                            PRN / # OF OBS      
   R08    10                            10    10    10      PRN / # OF OBS      
                            10    10    10    10            PRN / # OF OBS      
                                                            PRN / # OF OBS      
   R14    10                            10    10    10      PRN / # OF OBS      
                            10    10    10    10            PRN / # OF OBS      
                                                            PRN / # OF OBS      
   R15    10                            10    10    10      PRN / # OF OBS      
                            10    10    10    10            PRN / # OF OBS      
                                                            PRN / # OF OBS      
   R21    10                            10    10    10      PRN / # OF OBS      
                            10    10    10    10            PRN / # OF OBS      
                                                            PRN / # OF OBS      
   R22    10                            10    10    10      PRN / # OF OBS      
                            10    10    10    10            PRN / # OF OBS      
                                                            PRN / # OF OBS      
   R23    10                            10    10            PRN / # OF OBS      
                            10          10                  PRN / # OF OBS      
                                                            PRN / # OF OBS      
   R24    10                            10    10    10      PRN / # OF OBS      
                            10    10    10    10            PRN / # OF OBS      
                                                            PRN / # OF OBS      
   S23    10    10                      10    10          10PRN / # OF OBS      
                                        10          10      PRN / # OF OBS      
                                                            PRN / # OF OBS      
   S26    10                            10    10            PRN / # OF OBS      
                                        10                  PRN / # OF OBS      
                                                            PRN / # OF OBS      
   S36    10    10                      10    10          10PRN / # OF OBS      
                                        10          10      PRN / # OF OBS      
                                                            PRN / # OF OBS      
   S48    10                            10    10            PRN / # OF OBS      
                                        10                  PRN / # OF OBS      
                                                            PRN / # OF OBS      
     1.000                                                  INTERVAL            
  2023     1     1     1     0    0.0000000     GPS         TIME OF FIRST OBS   
  2023     1     1     1     0    9.0000000     GPS         TIME OF LAST OBS    
                                                            END OF HEADER      
 23 01 01 01 00 00.0000000  0 33E02E04E10E11E12E19E24E25E33G01G03G08
                                G10G14G17G21G22G27G32R01R06R07R08R14
                                R15R21R22R23R24S23S26S36S48
  27711360.805    27711361.945    27711354.758    27711359.484    27711362.117  
      1155.410   145624186.831 6                 108745334.186 6 118201426.255 7
 111582160.518 6 110163756.644 7                                        39.000  
                        39.500          43.600          40.400          44.000  
  26044754.617    26044755.527    26044747.801    26044753.434    26044755.664  
      2888.035   136866194.515 7                 102205324.198 7 111092698.913 7
 104871528.632 7 103538439.714 8                                        45.500  
                        47.400          47.600          46.700          50.800  
  23637638.289    23637639.980    23637632.863    23637637.457    23637639.758  
       387.063   124216682.954 8                  92759253.713 8 100825234.021 9
  95179046.709 8  93969156.005 9                                        52.700  
                        53.200          57.300          53.100          56.800  
  24419097.281    24419095.793    24419087.828    24419093.621    24419095.727  
      1470.625   128323237.110 7                  95825789.183 7 104158433.602 8
  98325574.467 7  97075708.621 8                                        46.300  
                        45.500          50.800          45.600          48.500  
  23870557.352    23870556.352    23870547.805    23870554.012    23870556.230  
      -728.215   125440651.593 8                  93673226.265 8 101818683.024 8
  96116865.108 8  94895051.485 8                                        48.500  
                        50.200          53.600          50.300          53.800  
  25962575.703    25962576.883    25962568.730    25962574.273    25962576.609  
       473.215   136434268.344 7                 101882738.749 7 110742076.017 7
 104540540.437 7 103211644.887 8                                        45.700  
                        45.300          47.400          45.400          49.100  
  27356689.445    27356691.578    27356684.023    27356688.520    27356691.008  
     -2874.504   143760377.752 7                 107353529.714 7 116688587.173 7
 110154043.030 7 108753795.158 7                                        42.300  
                        43.800          45.800          43.300          47.800  
  26305927.469    26305930.488    26305920.629    26305927.719    26305930.258  
     -1133.684   138238575.834 7                 103230111.632 7 112206604.267 8
 105923061.703 7 104576592.464 8                                        43.800  
                        45.500          48.600          45.100          49.900  
  27424979.617    27424981.453    27424973.969    27424978.039    27424980.934  
     -2152.965   144119488.846 6                 107621848.572 7 116980183.150 7
 110429344.788 6 109025602.476 7                                        41.800  
                        43.000          44.500          40.800          46.200  
  20520514.852    20520518.117                                                  
      1305.738   107836021.757 8  84028127.02747  80526943.833 9                
                                                  20520522.281          50.300  
        44.400          54.800                                                  
  22153792.391    22153797.512                                                  
      2893.961   116418850.236 7  90716129.57046  86936289.223 8                
                                                  22153799.180          45.600  
        36.800          51.000                                                  
  21423687.789    21423691.430                                                  
     -2415.965   112582183.708 8  87726475.69348  84071191.636 9                
                                                  21423694.742          50.300  
        53.200          54.100                                                  
  24660496.438    24660499.125                                                  
     -3303.219   129592005.133 6 100980961.91145  96773394.378 7                
                                                  24660503.441          39.700  
        34.200          43.400                                                  
  23210339.656    23210345.488                                                  
       209.145   121971159.630 6  95042479.44744  91082380.155 8                
                                                  23210343.789          40.600  
        29.600          48.000                                                  
  24664643.984                                                                  
      3264.570   129613504.762 5 100997610.56343                                
                                                  24664648.305          35.500  
        21.300                                                                  
  20849350.555                                                                  
      -244.191   109564096.547 8  85374649.07647                                
                                                  20849353.770          49.600  
        43.700                                                                  
  22395421.156                                                                  
      1259.836   117688888.941 7  91705557.40245                                
                                                  22395426.266          46.000  
        33.500                                                                  
  23901028.969    23901033.191                                                  
     -3597.187   125600755.231 6  97870782.70446  93792824.252 7                
                                                  23901035.676          40.200  
        37.100          45.100                                                  
  22886634.016    22886636.758                                                  
      -651.168   120270075.542 7  93716997.90247  89812085.171 7                
                                                  22886640.199          45.400  
        45.500          47.800                                                  
  23550466.016                                                                  
      4547.586   125890756.008 6  97915064.508 5                                
                                  23550465.730    23550471.129          38.200  
        33.300                                                                  
  23607641.578                                                                  
     -4119.941   125974903.029 5                                                
                                  23607639.242                          31.100  
                                                                                
  20045508.289                                                                  
     -1479.008   107305268.385 8  83459651.464 8                                
                                  20045507.426    20045510.848          51.800  
        49.900                                                                  
  20023909.039                                                                  
      2510.426   107227210.538 8  83398997.581 8                                
                                  20023908.457    20023910.602          50.000  
        49.500                                                                  
  23167180.734                                                                  
      -843.520   123494301.449 6  96050983.802 6                                
                                  23167177.730    23167182.027          39.800  
        39.100                                                                  
  24466030.258                                                                  
      2060.574   130739054.413 6 101685942.972 6                                
                                  24466029.191    24466032.848          39.800  
        36.900                                                                  
  24088834.992                                                                  
     -3329.352   128904321.125 6 100258987.698 6                                
                                  24088833.266    24088837.609          39.900  
        36.500                                                                  
  20515993.578                                                                  
     -1841.980   109515815.886 8  85178996.708 8                                
                                  20515992.836    20515994.770          51.500  
        49.500                                                                  
  20055154.992                                                                  
      1879.227   107281797.818 8                                                
                                  20055154.094                          49.300  
                                                                                
  23371196.844                                                                  
      3476.508   124976285.028 7  97203792.372 6                                
                                  23371196.195    23371199.348          43.400  
        40.900                                                                  
  38478089.297    38478072.813                                                  
         4.363   202204883.211 7                 150994947.473 7                
                                                                        44.200  
                        42.300                                                  
  40286562.828                                                                  
       -78.723   211707143.361 5                                                
                                                                        33.300  
                                                                                
  37806291.094    37806275.207                                                  
        -0.238   198674587.317 7                 148360074.825 7                
                                                                        45.600  
                        46.300                                                  
  67108863.984                                                                  
       -32.492   400806448.394 6                                                
                                                                        39.800  
                                                                                
 23 01 01 01 00 01.0000000  0 33E02E04E10E11E12E19E24E25E33G01G03G08
                                G10G14G17G21G22G27G32R01R06R07R08R14
                                R15R21R22R23R24S23S26S36S48
  27711141.172    27711142.082    27711134.941    27711139.563    27711142.270  
      1155.043   145623031.530 6                 108744471.468 6 118200488.512 7
 111581275.282 6 110162882.667 7                                        38.600  
                        39.100          43.600          40.600          44.200  
  26044204.953    26044205.957    26044198.262    26044203.789    26044206.066  
      2888.020   136863306.417 7                 102203167.533 7 111090354.680 7
 104869315.683 7 103536254.906 8                                        45.300  
                        47.000          47.600          46.800          50.700  
  23637564.602    23637566.410    23637559.242    23637563.777    23637566.117  
       386.949   124216295.910 8                  92758964.688 8 100824919.861 9
  95178750.141 8  93968863.210 9                                        53.100  
                        53.000          57.300          53.100          56.800  
  24418817.281    24418815.809    24418808.031    24418813.754    24418815.855  
      1470.602   128321766.393 7                  95824690.910 7 104157239.840 8
  98324447.546 7  97074596.025 8                                        46.500  
                        45.900          50.800          46.100          48.600  
  23870695.859    23870694.953    23870686.305    23870692.680    23870694.797  
      -728.289   125441379.795 8                  93673770.052 8 101819274.099 8
  96117423.085 8  94895602.360 8                                        48.500  
                        50.100          53.600          50.200          53.900  
  25962485.570    25962486.840    25962478.867    25962484.188    25962486.605  
       472.809   136433795.325 7                 101882385.500 7 110741692.078 7
 104540177.992 7 103211287.042 8                                        45.700  
                        45.300          47.400          45.500          49.000  
  27357236.492    27357238.684    27357231.172    27357235.559    27357237.984  
     -2874.453   143763252.156 7                 107355676.178 7 116690920.287 7
 110156245.501 7 108755969.644 8                                        42.600  
                        43.700          45.900          43.500          48.000  
  26306143.141    26306146.316    26306136.266    26306143.465    26306146.023  
     -1134.117   138239709.695 7                 103230958.331 7 112207524.604 8
 105923930.490 7 104577450.212 8                                        44.200  
                        45.900          48.600          45.700          50.100  
  27425389.000    27425391.129    27425383.645    27425387.680    27425390.598  
     -2152.809   144121641.661 6                 107623456.211 7 116981930.558 7
 110430994.366 6 109027231.067 7                                        41.600  
                        43.100          44.500          41.100          46.500  
  20520266.164    20520269.656                                                  
      1306.008   107834716.051 8  84027109.59147  80525968.841 9                
                                                  20520273.684          50.300  
        43.200          54.500                                                  
  22153241.367    22153246.813                                                  
      2893.734   116415956.388 7  90713874.62446  86934128.227 8                
                                                  22153248.586          45.600  
        36.900          50.900                                                  
  21424147.703    21424151.199                                                  
     -2416.352   112584599.878 8  87728358.42348  84072995.926 8                
                                                  21424154.461          50.300  
        53.100          53.900                                                  
  24661124.766    24661127.633                                                  
     -3303.211   129595308.315 6 100983535.81845  96775861.032 7                
                                                  24661131.984          39.400  
        34.000          43.300                                                  
  23210299.594    23210305.656                                                  
       208.566   121970950.815 6  95042316.73545  91082224.202 7                
                                                  23210304.004          40.400  
        30.200          47.600                                                  
  24664022.375                                                                  
      3264.582   129610240.122 5 100995066.67843                                
                                                  24664027.129          34.700  
        22.000                                                                  
  20849396.742                                                                  
      -244.344   109564340.831 8  85374839.42347                                
                                                  20849400.293          49.000  
        43.900                                                                  
  22395181.719                                                                  
      1259.387   117687629.321 7  91704575.87645                                
                                                  22395186.488          46.100  
        33.400                                                                  
  23901713.625    23901717.652                                                  
     -3597.324   125604352.419 6  97873585.70546  93795510.478 7                
                                                  23901720.289          40.200  
        36.900          44.900                                                  
  22886757.992    22886760.754                                                  
      -651.816   120270727.051 7  93717505.57247  89812571.682 7                
                                                  22886764.063          44.900  
        45.300          47.600                                                  
  23549615.672                                                                  
      4547.582   125886208.358 6  97911527.455 5                                
                                  23549615.160    23549620.281          37.800  
        33.700                                                                  
  23608412.688                                                                  
     -4120.234   125979023.107 5                                                
                                  23608411.398                          31.100  
                                                                                
  20045784.672                                                                  
     -1479.699   107306747.760 8  83460802.088 8                                
                                  20045783.895    20045787.145          51.800  
        49.800                                                                  
  20023439.992                                                                  
      2509.742   107224700.449 8  83397045.299 8                                
                                  20023439.805    20023441.852          49.800  
        49.800                                                                  
  23167337.914                                                                  
      -844.227   123495145.265 6  96051640.082 6                                
                                  23167336.090    23167340.387          40.000  
        39.500                                                                  
  24465645.023                                                                  
      2060.020   130736994.111 6 101684340.485 6                                
                                  24465644.523    24465647.211          39.900  
        36.700                                                                  
  24089456.047                                                                  
     -3329.434   128907650.476 6 100261577.181 6                                
                                  24089455.137    24089459.711          39.800  
        36.500                                                                  
  20516338.656                                                                  
     -1842.262   109517657.992 8  85180429.460 8                                
                                  20516337.984    20516340.027          51.600  
        49.300                                                                  
  20054803.938                                                                  
      1878.973   107279918.672 8                                                
                                  20054802.832                          49.600  
                                                                                
  23370546.602                                                                  
      3476.598   124972808.359 7  97201088.309 6                                
                                  23370545.852    23370549.148          43.200  
        40.900                                                                  
  38478088.359    38478071.977                                                  
         4.461   202204878.734 7                 150994944.111 7                
                                                                        44.200  
                        42.600                                                  
  40286576.063                                                                  
       -78.937   211707222.053 5                                                
                                                                        33.100  
                                                                                
  37806290.891    37806275.266                                                  
        -0.094   198674587.418 7                 148360074.876 7                
                                                                        45.600  
                        45.900                                                  
  67108863.984                                                                  
       -32.379   400806480.695 6                                                
                                                                        39.900  
                                                                                
 23 01 01 01 00 02.0000000  0 33E02E04E10E11E12E19E24E25E33G01G03G08
                                G10G14G17G21G22G27G32R01R06R07R08R14
                                R15R21R22R23R24S23S26S36S48
  27710921.391    27710922.566    27710915.449    27710919.973    27710922.512  
      1154.523   145621876.701 6                 108743609.089 6 118199551.146 7
 111580390.394 6 110162009.037 7                                        38.700  
                        39.000          43.500          40.500          43.900  
  26043655.156    26043656.355    26043648.563    26043654.234    26043656.520  
      2887.781   136860418.491 7                 102201010.962 7 111088010.589 7
 104867102.856 7 103534070.207 8                                        45.100  
                        46.900          47.600          46.900          50.400  
  23637490.961    23637492.801    23637485.590    23637490.164    23637492.488  
       386.719   124215909.028 8                  92758675.780 8 100824605.835 9
  95178453.700 8  93968570.540 9                                        53.100  
                        53.300          57.300          53.300          57.200  
  24418537.664    24418536.035    24418528.133    24418533.867    24418536.020  
      1470.547   128320295.783 7                  95823592.735 7 104156046.164 8
  98323320.719 7  97073483.526 8                                        46.200  
                        45.900          50.800          45.900          48.500  
  23870834.383    23870833.586    23870825.090    23870831.176    23870833.398  
      -728.555   125442108.180 8                  93674313.978 8 101819865.322 8
  96117981.198 8  94896153.392 8                                        48.600  
                        49.800          53.600          50.500          53.900  
  25962395.758    25962397.012    25962388.785    25962394.332    25962396.684  
       472.195   136433322.757 7                 101882032.613 7 110741308.502 7
 104539815.898 7 103210929.555 8                                        45.700  
                        45.300          47.300          45.700          49.000  
  27357783.352    27357785.473    27357778.000    27357782.492    27357784.988  
     -2874.609   143766126.654 7                 107357822.722 7 116693253.488 7
 110158448.021 7 108758144.165 8                                        42.500  
                        43.700          45.900          43.800          48.200  
  26306358.914    26306362.160    26306352.336    26306359.277    26306361.863  
     -1134.602   138240843.990 7                 103231805.353 7 112208445.296 8
 105924799.625 7 104578308.292 8                                        43.500  
                        45.500          48.600          45.500          50.100  
  27425798.594    27425800.691    27425793.250    27425797.516    27425800.285  
     -2153.039   144123794.570 6                 107625063.877 7 116983678.055 7
 110432643.964 6 109028859.721 7                                        41.700  
                        43.200          44.600          41.200          46.400  
  20520017.984    20520021.266                                                  
      1305.043   107833410.722 8  84026092.50446  80524994.093 9                
                                                  20520025.461          51.200  
        39.600          54.400                                                  
  22152691.172    22152696.184                                                  
      2893.305   116413062.878 7  90711619.94246  86931967.503 8                
                                                  22152697.965          45.200  
        36.800          51.000                                                  
  21424607.594    21424611.074                                                  
     -2416.895   112587016.505 8  87730241.50948  84074800.540 8                
                                                  21424614.418          49.700  
        53.100          53.700                                                  
  24661753.570    24661756.184                                                  
     -3303.250   129598611.499 6 100986109.73045  96778327.714 7                
                                                  24661760.785          39.200  
        34.000          43.600                                                  
  23210260.023    23210266.043                                                  
       207.895   121970742.580 6  95042154.47144  91082068.712 7                
                                                  23210264.438          40.400  
        28.600          47.200                                                  
  24663401.813                                                                  
      3264.824   129606975.50715 100992522.82853                                
                                                  24663405.832          33.500  
        21.100                                                                  
  20849443.266                                                                  
      -244.738   109564585.348 8  85375029.95447                                
                                                  20849446.820          49.100  
        43.700                                                                  
  22394942.031                                                                  
      1258.781   117686370.235 7  91703594.77545                                
                                                  22394946.910          46.000  
        34.000                                                                  
  23902398.172    23902402.219                                                  
     -3597.637   125607949.797 6  97876388.86346  93798196.809 7                
                                                  23902404.938          39.800  
        36.900          44.900                                                  
  22886882.086    22886885.000                                                  
      -652.391   120271379.166 7  93718013.71447  89813058.659 7                
                                                  22886888.102          44.500  
        45.300          47.900                                                  
  23548765.172                                                                  
      4547.449   125881660.849 6  97907990.500 5                                
                                  23548764.480    23548769.527          38.100  
        33.800                                                                  
  23609185.281                                                                  
     -4120.379   125983143.395 5                                                
                                  23609183.805                          31.000  
                                                                                
  20046060.578                                                                  
     -1480.609   107308227.987 8  83461953.360 8                                
                                  20046060.395    20046063.723          51.800  
        49.800                                                                  
  20022971.375                                                                  
      2508.863   107222191.153 8  83395093.624 8                                
                                  20022971.188    20022973.246          50.100  
        49.900                                                                  
  23167496.797                                                                  
      -845.023   123495989.819 6  96052296.967 6                                
                                  23167494.652    23167498.797          39.900  
        39.400                                                                  
  24465259.578                                                                  
      2059.383   130734934.405 6 101682738.511 6                                
                                  24465258.738    24465261.738          39.800  
        36.400                                                                  
  24090078.367                                                                  
     -3329.648   128910979.965 6 100264166.796 6                                
                                  24090077.746    24090081.832          39.800  
        36.200                                                                  
  20516683.914                                                                  
     -1842.777   109519500.510 8  85181862.532 8                                
                                  20516683.195    20516685.191          51.700  
        49.400                                                                  
  20054452.664                                                                  
      1878.590   107278039.850 8                                                
                                  20054451.652                          49.600  
                                                                                
  23369896.547                                                                  
      3476.633   124969331.633 7  97198384.198 6                                
                                  23369895.570    23369898.941          43.200  
        40.800                                                                  
  38478087.016    38478071.141                                                  
         4.422   202204874.260 7                 150994940.775 7                
                                                                        44.700  
                        42.700                                                  
  40286597.016                                                                  
       -78.836   211707300.748 5                                                
                                                                        32.900  
                                                                                
  37806291.516    37806275.316                                                  
        -0.406   198674587.662 7                 148360074.959 7                
                                                                        45.700  
                        45.900                                                  
  67108863.984                                                                  
       -32.371   400806513.013 6                                                
                                                                        40.200  
                                                                                
 23 01 01 01 00 03.0000000  0 33E02E04E10E11E12E19E24E25E33G01G03G08
                                G10G14G17G21G22G27G32R01R06R07R08R14
                                R15R21R22R23R24S23S26S36S48
  27710701.445    27710702.836    27710695.594    27710700.219    27710702.824  
      1154.238   145620722.340 6                 108742747.102 6 118198614.163 7
 111579505.909 6 110161135.794 7                                        38.900  
                        39.300          43.400          40.900          43.800  
  26043105.813    26043106.898    26043099.121    26043104.676    26043106.992  
      2887.664   136857530.780 7                 102198854.550 7 111085666.668 7
 104864890.197 7 103531885.663 8                                        45.500  
                        47.100          47.700          46.600          50.300  
  23637417.414    23637419.176    23637412.008    23637416.637    23637418.914  
       386.555   124215522.379 8                  92758387.039 8 100824291.992 9
  95178157.432 8  93968278.037 9                                        52.500  
                        53.100          57.300          53.300          57.200  
  24418257.688    24418256.230    24418248.352    24418254.098    24418256.207  
      1470.332   128318825.372 7                  95822494.696 7 104154852.649 8
  98322194.036 7  97072371.165 8                                        46.400  
                        45.900          50.800          46.000          48.500  
  23870972.938    23870972.211    23870963.633    23870969.813    23870972.063  
      -728.680   125442836.787 8                  93674858.075 8 101820456.725 8
  96118539.472 8  94896704.570 8                                        48.600  
                        49.700          53.600          50.800          53.800  
  25962306.102    25962306.965    25962299.074    25962304.566    25962306.855  
       471.801   136432850.750 7                 101881680.161 7 110740925.374 7
 104539454.233 7 103210572.497 8                                        45.700  
                        45.300          47.400          45.500          48.800  
  27358330.516    27358332.543    27358325.125    27358329.434    27358332.016  
     -2874.691   143769001.273 7                 107359969.354 7 116695586.779 7
 110160650.669 7 108760318.798 7                                        42.200  
                        43.600          46.000          44.000          47.800  
  26306575.070    26306578.070    26306568.141    26306575.168    26306577.809  
     -1134.895   138241978.737 7                 103232652.755 7 112209366.358 8
 105925669.109 7 104579166.730 8                                        43.700  
                        45.700          48.600          45.100          50.200  
  27426208.430    27426210.281    27426202.992    27426207.238    27426210.020  
     -2153.129   144125947.593 6                 107626671.646 7 116985425.640 7
 110434293.668 6 109030488.464 7                                        41.500  
                        42.700          44.600          41.400          46.400  
  20519769.469    20519772.953                                                  
      1304.789   107832105.792 8  84025075.69546  80524019.640 9                
                                                  20519776.965          50.900  
        39.600          54.600                                                  
  22152140.531    22152145.656                                                  
      2892.883   116410169.816 7  90709365.61046  86929807.087 8                
                                                  22152147.488          45.100  
        36.800          51.400                                                  
  21425067.156    21425071.074                                                  
     -2417.344   112589433.636 8  87732124.98548  84076605.532 8                
                                                  21425074.297          49.700  
        53.200          53.900                                                  
  24662382.227    24662384.746                                                  
     -3303.336   129601914.811 6 100988683.73245  96780794.465 7                
                                                  24662389.383          39.600  
        33.400          43.300                                                  
  23210220.672    23210226.574                                                  
       207.219   121970535.083 6  95041992.78444  91081913.753 7                
                                                  23210225.020          40.500  
        29.300          46.600                                                  
  24662780.281                                                                  
      3264.441   129603711.16415 100989979.20853                                
                                                  24662784.477          33.400  
        21.100                                                                  
  20849489.883                                                                  
      -244.867   109564830.152 8  85375220.71347                                
                                                  20849493.348          49.100  
        43.700                                                                  
  22394702.141                                                                  
      1258.266   117685111.734 7  91702614.12745                                
                                                  22394707.414          45.300  
        33.600                                                                  
  23903082.781    23903086.813                                                  
     -3597.516   125611547.324 6  97879192.12646  93800883.291 7                
                                                  23903089.469          39.200  
        37.100          45.100                                                  
  22887006.445    22887009.180                                                  
      -652.914   120272031.954 7  93718522.37847  89813546.132 8                
                                                  22887012.402          44.600  
        45.300          48.000                                                  
  23547913.617                                                                  
      4547.406   125877113.490 6  97904453.658 5                                
                                  23547913.637    23547918.902          37.900  
        33.700                                                                  
  23609958.063                                                                  
     -4120.797   125987264.011 5                                                
                                  23609956.070                          31.400  
                                                                                
  20046337.625                                                                  
     -1481.426   107309709.085 8  83463105.329 8                                
                                  20046337.129    20046340.469          52.100  
        50.100                                                                  
  20022503.211                                                                  
      2508.148   107219682.683 8  83393142.590 8                                
                                  20022502.648    20022504.895          49.800  
        49.400                                                                  
  23167656.250                                                                  
      -845.687   123496835.223 6  96052954.480 6                                
                                  23167653.512    23167657.277          39.900  
        39.600                                                                  
  24464873.789                                                                  
      2058.695   130732875.436 6 101681137.099 6                                
                                  24464873.402    24464876.543          40.200  
        36.100                                                                  
  24090700.445                                                                  
     -3329.875   128914309.676 6 100266756.567 6                                
                                  24090700.070    24090704.227          39.600  
        36.600                                                                  
  20517029.344                                                                  
     -1843.191   109521343.497 8  85183295.950 8                                
                                  20517028.422    20517030.449          51.200  
        49.700                                                                  
  20054101.258                                                                  
      1878.250   107276161.408 8                                                
                                  20054100.359                          49.500  
                                                                                
  23369246.523                                                                  
      3476.695   124965854.947 7  97195680.099 6                                
                                  23369245.840    23369248.832          43.000  
        41.200                                                                  
  38478086.078    38478070.297                                                  
         4.379   202204869.855 7                 150994937.499 7                
                                                                        44.500  
                        42.800                                                  
  40286609.781                                                                  
       -78.789   211707379.522 5                                                
                                                                        33.300  
                                                                                
  37806291.672    37806275.418                                                  
        -0.277   198674587.937 7                 148360074.974 7                
                                                                        45.300  
                        46.300                                                  
  67108863.984                                                                  
       -32.398   400806545.389 6                                                
                                                                        40.500  
                                                                                
 23 01 01 01 00 04.0000000  0 33E02E04E10E11E12E19E24E25E33G01G03G08
                                G10G14G17G21G22G27G32R01R06R07R08R14
                                R15R21R22R23R24S23S26S36S48
  27710481.906    27710483.234    27710476.082    27710480.574    27710483.246  
      1153.805   145619568.374 6                 108741885.350 6 118197677.512 7
 111578621.689 6 110160262.808 7                                        39.000  
                        39.300          43.300          40.700          43.500  
  26042556.438    26042557.398    26042549.723    26042555.180    26042557.512  
      2887.449   136854643.210 7                 102196698.239 7 111083322.859 7
 104862677.635 7 103529701.236 8                                        45.600  
                        47.000          47.700          46.800          50.300  
  23637343.898    23637345.625    23637338.426    23637343.004    23637345.359  
       386.398   124215135.853 8                  92758098.417 8 100823978.258 9
  95177861.268 8  93967985.641 9                                        52.600  
                        53.300          57.300          53.100          57.500  
  24417977.836    24417976.473    24417968.457    24417974.266    24417976.391  
      1470.172   128317355.018 7                  95821396.707 7 104153659.181 8
  98321067.407 7  97071258.852 8                                        46.400  
                        46.100          50.800          46.100          48.500  
  23871111.695    23871110.789    23871102.332    23871108.469    23871110.727  
      -728.828   125443565.528 8                  93675402.256 8 101821048.232 8
  96119097.854 8  94897255.856 8                                        48.500  
                        49.800          53.600          50.800          53.800  
  25962216.430    25962217.305    25962209.289    25962214.719    25962217.121  
       471.320   136432379.207 7                 101881328.023 7 110740542.628 7
 104539092.905 7 103210215.757 8                                        45.700  
                        45.100          47.400          45.300          48.700  
  27358877.664    27358879.672    27358872.230    27358876.457    27358879.055  
     -2874.734   143771875.948 7                 107362116.005 7 116697920.120 7
 110162853.335 7 108762493.449 7                                        42.300  
                        43.700          46.000          43.800          47.700  
  26306790.758    26306794.281    26306784.266    26306791.184    26306793.828  
     -1135.402   138243113.928 7                 103233500.450 7 112210287.780 8
 105926538.940 7 104580025.483 8                                        43.800  
                        45.500          48.600          45.400          50.000  
  27426618.055    27426620.090    27426612.785    27426616.840    27426619.727  
     -2153.125   144128100.621 6                 107628279.434 7 116987173.225 7
 110435943.433 6 109032117.227 7                                        41.400  
                        42.700          44.500          41.200          46.700  
  20519521.172    20519524.711                                                  
      1304.441   107830801.185 8  84024059.11146  80523045.409 9                
                                                  20519528.656          51.500  
        39.900          54.400                                                  
  22151590.258    22151595.246                                                  
      2892.543   116407277.081 7  90707111.53146  86927646.931 8                
                                                  22151597.105          45.500  
        36.900          51.100                                                  
  21425527.227    21425531.109                                                  
     -2417.758   112591851.188 8  87734008.79148  84078410.849 8                
                                                  21425534.379          49.600  
        53.300          53.700                                                  
  24663010.609    24663013.359                                                  
     -3303.391   129605218.152 6 100991257.77545  96783261.254 7                
                                                  24663017.863          38.800  
        33.600          43.200                                                  
  23210181.297    23210187.129                                                  
       206.656   121970328.189 6  95041831.56544  91081759.258 7                
                                                  23210185.613          40.400  
        28.900          46.900                                                  
  24662159.047                                                                  
      3264.223   129600446.683 5 100987435.43443                                
                                                  24662163.230          34.000  
        20.600                                                                  
  20849536.727                                                                  
