     3.05           OBSERVATION DATA    G                   RINEX VERSION / TYPE
cnvtToRINEX 3.14.0  REGINA              20220102 000620 UTC PGM / RUN BY / DATE 
gfzrnx-2.00-8219    FILE PROCESSING     20240209 221741 UTC COMMENT             
TLSE                                                        MARKER NAME         
10003M009                                                   MARKER NUMBER       
Automatic           CNES                                    OBSERVER / AGENCY   
5048K71845          TRIMBLE NETR9       5.45                REC # / TYPE / VERS 
5129354206          TRM59800.00     NONE                    ANT # / TYPE        
        1.0530        0.0000        0.0000                  ANTENNA: DELTA H/E/N
  4627853.3468   119640.2373  4372995.2492                  APPROX POSITION XYZ 
G   16 C1C C2W C2X C5X D1C D2W D2X D5X L1C L2W L2X L5X S1C  SYS / # / OBS TYPES 
       S2W S2X S5X                                          SYS / # / OBS TYPES 
INITIAL_RINEX_VERSION: 3.04                                 COMMENT             
----------------------------------------------------------- COMMENT             
GEODETIC                                                    MARKER TYPE         
     0                                                      RCV CLOCK OFFS APPL 
G L2X -0.25000                                              SYS / PHASE SHIFT   
    18                                                      LEAP SECONDS        
DBHZ                                                        SIGNAL STRENGTH UNIT
GFZRNX.NUM_EPOCHS: 120                                      COMMENT
    14                                                      # OF SATELLITES     
   G01   120   120   120   120   120   119   119   119   120PRN / # OF OBS      
         120   120   120   120   120   120   120            PRN / # OF OBS      
   G03    41    40    41    41    41    31    40    40    34PRN / # OF OBS      
          34    41    41    41    40    41    41            PRN / # OF OBS      
   G07    26    14    22          26    13    21          26PRN / # OF OBS      
          14    22          26    14    22                  PRN / # OF OBS      
   G08   120   120   120   120   120   119   119   119   120PRN / # OF OBS      
         120   120   120   120   120   120   120            PRN / # OF OBS      
   G10   120   120   120   120   120   119   119   119   120PRN / # OF OBS      
         120   120   120   120   120   120   120            PRN / # OF OBS      
   G14    87    86    87    87    87    82    86    86    86PRN / # OF OBS      
          85    87    87    87    86    87    87            PRN / # OF OBS      
   G16   120   120               120   119               120PRN / # OF OBS      
         120               120   120                        PRN / # OF OBS      
   G21   120   120               120   119               120PRN / # OF OBS      
         120               120   120                        PRN / # OF OBS      
   G22   120   120               120   109               114PRN / # OF OBS      
         114               120   120                        PRN / # OF OBS      
   G23   117   114   117   117   117   113   116   116   116PRN / # OF OBS      
         114   117   117   117   114   117   117            PRN / # OF OBS      
   G26     9     9     9     9     9     8     8     8     9PRN / # OF OBS      
           9     9     9     9     9     9     9            PRN / # OF OBS      
   G27   120   120   120   120   120   119   119   119   120PRN / # OF OBS      
         120   120   120   120   120   120   120            PRN / # OF OBS      
   G30    52    31    52    52    52    30    50    50    47PRN / # OF OBS      
          31    52    52    52    31    52    52            PRN / # OF OBS      
   G32   120   120   120   120   120   119   119   119   120PRN / # OF OBS      
         120   120   120   120   120   120   120            PRN / # OF OBS      
    30.000                                                  INTERVAL            
  2022     1     1     0     0    0.0000000     GPS         TIME OF FIRST OBS   
  2022     1     1     0    59   30.0000000     GPS         TIME OF LAST OBS    
                                                            END OF HEADER      
> 2022 01 01 00 00 00.0000000  0 12
G01  23590139.203 6  23590148.227 3  23590147.465 6  23590146.297 7      3130.391 6                                                 123967008.572 6  96597711.760 3  96597707.774 6  92572810.567 7        38.600          22.000          40.900          45.400
G07  24998288.344 5                                                     -1562.125 5                                                 131366939.256 5                                                        34.900
G08  20554787.664 8  20554794.242 9  20554794.563 8  20554793.664 9      1097.641 8                                                 108016131.411 8  84168474.544 9  84168476.540 8  80661457.909 9        50.900          55.500          51.500          56.000
G10  21447903.727 8  21447910.074 9  21447909.977 8  21447908.996 9     -1169.531 8                                                 112709516.062 8  87825635.635 9  87825626.640 8  84166230.660 9        52.000          54.200          48.400          54.300
G16  22928686.734 7  22928690.602 5                                     -3449.199 7                                                 120491027.665 7  93889161.741 5                                        44.600          30.900
G21  21723481.234 8  21723484.727 6                                      1513.633 8                                                 114157760.066 8  88954056.191 6                                        48.000          36.600
G22  24595231.414 5  24595235.094 2                                      3751.094 5                                                 129248813.087 5 100713380.154 2                                        33.000          16.900
G23  23387486.727 6  23387490.699 4  23387491.023 7  23387493.402 7     -3003.113 6                                                 122902079.825 6  95767879.758 4  95767896.754 7  91777585.771 7        41.700          28.100          42.800          46.700
G26  25671033.578 6  25671040.719 4  25671040.234 5  25671039.859 6     -3646.793 6                                                 134902216.169 6 105118618.897 4 105118647.893 5 100738710.412 6        37.600          28.400          34.900          40.900
G27  20423421.984 8  20423428.113 9  20423428.262 8  20423428.043 9     -1038.910 8                                                 107325711.245 8  83630551.834 9  83630552.836 8  80145951.619 9        52.300          55.500          51.600          56.600
G30  25465085.734 4                  25465093.996 5  25465094.793 6      -628.926 4                                                 133820056.26314                 104275294.634 5  99930482.351 6        27.600                          32.500          37.300
G32  24620223.180 6  24620230.148 5  24620230.484 6  24620230.188 7      2766.563 6                                                 129380156.743 6 100815717.002 5 100815721.989 6  96615067.098 7        37.600          31.900          38.400          42.600
> 2022 01 01 00 00 30.0000000  0 12
G01  23572284.180 6  23572292.625 3  23572292.461 6  23572291.352 7      3124.840 6      2437.138 3      2437.138 6      2335.590 7 123873178.745 6  96524597.623 3  96524593.629 6  92502742.868 7        38.100          22.600          40.800          45.600
G07  25007238.320 5                                                     -1573.164 5                                                 131413968.536 5                                                        33.900
G08  20548556.000 8  20548562.344 9  20548563.066 8  20548561.617 9      1085.387 8       850.596 9       850.596 8       815.154 9 107983383.471 8  84142956.668 9  84142958.662 8  80637003.283 9        50.100          55.400          51.400          55.700
G10  21454630.367 8  21454636.926 9  21454636.621 8  21454635.762 9     -1187.051 8      -918.162 9      -918.162 8      -879.906 9 112744865.306 8  87853180.497 9  87853171.501 8  84192627.826 9        51.000          54.100          48.700          54.100
G16  22948399.656 7  22948403.363 5                                     -3456.898 7     -2690.689 5                                 120594619.193 7  93969882.410 5                                        44.500          31.800
G21  21714864.398 7  21714867.898 6                                      1505.078 7      1176.163 6                                 114112477.744 7  88918771.288 6                                        47.400          36.700
G22  24573827.445 5  24573830.758 2                                      3747.766 5                                                 129136330.63815 100625731.51412                                        31.500          17.400
G23  23404659.016 6  23404663.125 4  23404663.359 6  23404667.801 7     -3013.195 6     -2344.034 4     -2344.034 6     -2246.366 7 122992325.139 6  95838200.777 4  95838217.765 6  91844976.758 7        39.800          26.200          41.800          47.200
G26  25691843.195 5  25691850.504 4  25691849.934 5  25691849.285 6     -3643.777 5     -2840.404 4     -2840.405 5     -2722.055 6 135011571.759 5 105203831.028 4 105203860.051 5 100820372.056 6        35.900          25.200          33.800          39.400
G27  20429391.484 8  20429397.609 9  20429397.734 8  20429397.480 9     -1052.492 8      -814.790 9      -814.790 8      -780.841 9 107357080.667 8  83654995.539 9  83654996.534 8  80169376.835 9        51.600          55.000          51.900          56.700
G30  25468721.148 4                  25468728.430 5  25468728.348 5      -644.555 4                      -496.100 5      -475.428 5 133839156.15414                 104290177.625 5  99944745.184 5        29.600                          30.500          35.300
G32  24604440.688 6  24604446.145 5  24604446.773 6  24604446.023 7      2762.961 6      2154.394 5      2154.393 6      2064.627 7 129297212.575 6 100751085.195 5 100751090.192 6  96553128.300 7        40.300          34.000          37.900          42.600
> 2022 01 01 00 01 00.0000000  0 12
G01  23554459.727 6  23554467.555 3  23554468.137 6  23554467.180 7      3119.570 6      2432.951 3      2432.951 6      2331.579 7 123779510.137 6  96451609.106 3  96451605.100 6  92432795.502 7        38.000          23.000          39.900          46.200
G07  25016249.422 5                                                     -1584.289 5                                                 131461326.871 5                                                        32.000
G08  20542393.609 8  20542400.008 9  20542400.746 8  20542399.531 9      1073.328 8       841.118 9       841.118 8       806.072 9 107951000.430 8  84117723.131 9  84117725.133 8  80612821.137 9        49.700          56.100          51.000          55.800
G10  21461455.867 8  21461462.531 9  21461462.039 8  21461461.305 9     -1204.301 8      -931.658 9      -931.658 8      -892.839 9 112780734.146 8  87881130.242 9  87881121.253 8  84219412.995 9        50.900          54.100          49.300          54.000
G16  22968155.391 7  22968159.438 5                                     -3464.340 7     -2696.557 5                                 120698436.650 7  94050779.127 5                                        44.200          30.200
G21  21706295.906 8  21706299.469 6                                      1496.680 8      1169.569 6                                 114067449.294 8  88883684.209 6                                        48.200          37.000
G22  24552439.867 5  24552443.297 2                                      3744.500 5                                                 129023940.64515 100538154.93712                                        32.300          17.800
G23  23421889.430 6  23421893.477 4  23421893.195 6  23421897.559 7     -3023.176 6     -2351.794 4     -2351.796 6     -2253.803 7 123082869.239 6  95908754.611 4  95908771.644 6  91912590.854 7        40.200          26.700          41.600          46.900
G26  25712633.453 5  25712640.984 4  25712641.621 5  25712640.715 6     -3640.320 5     -2837.850 4     -2837.849 5     -2719.604 6 135120828.952 5 105288966.523 4 105288995.530 5 100901960.186 6        35.400          24.700          33.800          40.100
G27  20435437.758 8  20435443.867 9  20435443.949 8  20435443.758 9     -1065.906 8      -825.279 9      -825.280 8      -790.893 9 107388853.939 8  83679753.922 9  83679754.924 8  80193103.619 9        52.100          55.200          51.900          56.700
G30  25472446.273 4                  25472451.320 5  25472450.078 5      -659.887 4                      -508.088 5      -486.920 5 133858717.43514                 104305420.273 5  99959352.791 5        28.600                          30.900          34.300
G32  24588677.125 6  24588683.578 5  24588683.832 6  24588683.523 7      2759.305 6      2151.584 5      2151.584 6      2061.936 7 129214376.611 6 100686537.665 5 100686542.676 6  96491270.237 7        40.000          34.100          38.700          42.700
> 2022 01 01 00 01 30.0000000  0 12
G01  23536666.297 6  23536674.379 3  23536674.359 6  23536673.445 7      3114.219 6      2428.735 3      2428.734 6      2327.536 7 123686003.862 6  96378747.068 3  96378743.085 6  92362969.410 7        39.000          23.900          41.000          46.400
G07  25025326.195 5                                                     -1594.852 5                                                 131509012.201 5                                                        32.300
G08  20536301.203 8  20536307.438 9  20536308.051 8  20536307.082 9      1061.035 8       831.595 9       831.596 8       796.946 9 107918984.007 8  84092775.271 9  84092777.266 8  80588912.767 9        50.600          55.900          50.900          55.900
G10  21468380.719 8  21468386.836 9  21468386.445 8  21468385.574 8     -1221.570 8      -945.128 9      -945.128 8      -905.748 8 112817121.588 8  87909484.096 9  87909475.108 8  84246585.430 8        49.900          54.300          48.800          53.900
G16  22987954.047 7  22987957.246 4                                     -3471.742 7     -2702.347 4                                 120802477.031 7  94131849.540 4                                        43.800          29.600
G21  21697775.852 8  21697779.273 6                                      1488.191 8      1162.973 6                                 114022674.824 8  88848795.010 6                                        48.000          37.500
G22  24531070.438 5  24531074.730 2                                      3741.457 5                                                 128911645.57115 100450652.26912                                        31.600          16.900
G23  23439175.602 6  23439179.828 4  23439180.168 7  23439184.207 7     -3032.949 6     -2359.500 4     -2359.500 7     -2261.187 7 123173709.997 6  95979539.625 4  95979556.644 7  91980426.463 7        39.400          26.700          42.500          47.200
G26  25733405.867 6  25733413.301 4  25733412.527 5  25733413.145 6     -3636.914 6     -2835.260 4     -2835.260 5     -2717.124 6 135229986.499 6 105374024.315 4 105374053.321 5 100983473.909 6        36.800          27.300          35.700          41.100
G27  20441561.063 8  20441567.066 9  20441567.098 8  20441566.984 9     -1079.387 8      -835.784 9      -835.784 8      -800.959 9 107421031.635 8  83704827.447 9  83704828.442 8  80217132.403 9        51.200          55.000          51.200          56.700
G30  25476252.109 4                  25476260.703 5  25476261.039 5      -674.578 4                      -520.051 5      -498.383 5 133878739.37514                 104321021.805 5  99974304.281 5        25.900                          30.600          35.800
G32  24572934.531 6  24572941.898 5  24572941.676 6  24572941.488 7      2755.617 6      2148.685 5      2148.686 6      2059.156 7 129131652.247 6 100622077.119 5 100622082.107 6  96429495.547 7        40.300          34.300          39.000          42.900
> 2022 01 01 00 02 00.0000000  0 12
G01  23518902.938 6  23518911.207 3  23518911.316 6  23518910.684 7      3108.570 6      2424.491 3      2424.493 6      2323.472 7 123592660.886 6  96306012.326 3  96306008.299 6  92293265.251 7        37.700          22.500          40.700          46.800
G07  25034458.664 4                  25034465.309 5                     -1606.000 4                                                 131557022.031 4                 102511924.55115                        28.900                          31.000
G08  20530278.813 8  20530285.020 9  20530285.637 8  20530284.672 9      1048.695 8       822.035 9       822.035 8       787.783 9 107887335.680 8  84068114.227 9  84068116.223 8  80565279.281 9        50.500          55.800          51.100          55.900
G10  21475403.219 8  21475409.426 9  21475409.367 8  21475408.184 9     -1238.809 8      -958.559 9      -958.559 8      -918.619 9 112854026.122 8  87938240.877 9  87938231.882 8  84274144.012 9        51.300          54.100          48.800          54.200
G16  23007794.070 7  23007797.906 5                                     -3479.121 7     -2708.091 5                                 120906738.508 7  94213092.260 5                                        44.500          30.300
G21  21689303.500 7  21689307.012 6                                      1479.699 7      1156.380 6                                 113978154.168 7  88814103.604 6                                        47.400          36.900
G22  24509720.031 5  24509723.566 2                                      3737.813 5                                                 128799447.80815 100363225.43612                                        31.200          16.300
G23  23456518.250 6  23456522.609 4  23456522.492 7  23456525.895 7     -3042.762 6     -2367.139 4     -2367.138 7     -2268.509 7 123264844.830 6  96050553.782 4  96050570.785 7  92048481.720 7        40.000          26.200          42.600          46.600
G26  25754158.000 6  25754165.934 4  25754165.980 5  25754164.949 6     -3633.461 6     -2832.614 4     -2832.615 5     -2714.589 6 135339042.182 6 105459002.724 4 105459031.759 5 101064911.572 6        36.500          28.200          35.300          40.400
G27  20447761.133 8  20447767.297 9  20447767.422 8  20447767.211 9     -1092.867 8      -846.289 9      -846.289 8      -811.027 9 107453613.775 8  83730216.117 9  83730217.119 8  80241463.218 9        52.300          55.000          51.900          56.600
G30  25480150.203 4                  25480158.074 5  25480158.480 6      -690.570 4                      -531.985 5      -509.818 6                                 104336981.345 5  99989598.823 6        27.300                          30.900          36.300
G32  24557215.016 6  24557221.344 5  24557221.301 6  24557220.730 7      2751.633 6      2145.707 5      2145.707 6      2056.303 7 129049042.503 6 100557705.899 5 100557710.912 6  96367806.448 7        40.400          33.800          38.400          42.200
> 2022 01 01 00 02 30.0000000  0 12
G01  23501171.633 6  23501180.188 3  23501180.016 6  23501179.570 7      3103.223 6      2420.242 3      2420.240 6      2319.396 7 123499481.548 6  96233405.062 3  96233401.116 6  92223683.359 7        37.000          22.800          40.600          47.200
G07  25043657.711 5                  25043662.723 5                     -1616.418 5                     -1255.368 5                 131605353.841 5                 102549585.601 5                        31.600                          33.100
G08  20524326.375 8  20524332.926 9  20524333.445 8  20524332.262 9      1036.355 8       812.443 9       812.443 8       778.591 9 107856056.618 8  84043740.931 9  84043742.933 8  80541921.542 9        50.900          55.300          51.800          55.900
G10  21482524.422 8  21482530.402 9  21482530.168 8  21482529.137 8     -1255.980 8      -971.945 9      -971.945 8      -931.447 8 112891446.002 8  87967399.218 9  87967390.224 8  84302087.425 8        50.500          54.300          49.500          53.900
G16  23027675.492 7  23027679.918 5                                     -3486.301 7     -2713.767 5                                 121011218.549 7  94294505.273 5                                        43.300          30.400
G21  21680879.148 7  21680882.992 6                                      1471.246 7      1149.797 6                                 113933886.978 7  88779609.693 6                                        46.900          36.800
G22  24488388.836 5  24488391.641 2                                      3734.840 5                                                                                                                        32.300          17.400
G23  23473916.188 6  23473919.570 4  23473919.957 6  23473923.461 7     -3052.563 6     -2374.704 4     -2374.704 6     -2275.757 7 123356270.970 6  96121794.906 4  96121811.899 6  92116754.430 7        39.600          25.300          41.700          46.000
G26  25774890.563 6  25774898.594 4  25774897.863 5  25774897.598 6     -3630.078 6     -2829.910 4     -2829.910 5     -2711.995 6 135447993.750 6 105543900.015 4 105543929.048 5 101146271.425 6        36.400          26.500          34.800          39.400
G27  20454038.117 8  20454044.305 9  20454044.570 8  20454044.293 9     -1106.348 8      -856.788 9      -856.788 8      -821.089 9 107486600.124 8  83755919.750 9  83755920.752 8  80266095.872 9        50.900          55.100          52.300          56.700
G30  25484134.359 4                  25484141.281 4  25484143.195 6      -705.520 4                      -543.918 4      -521.210 6 133920159.95614                 104353297.53814 100005235.120 6        27.600                          28.600          38.100
G32  24541517.750 6  24541523.523 5  24541523.641 6  24541523.293 7      2747.727 6      2142.660 5      2142.660 6      2053.383 7 128966550.137 6 100493426.095 5 100493431.101 6  96306204.964 7        41.100          33.600          38.100          42.900
> 2022 01 01 00 03 00.0000000  0 11
G01  23483470.836 6  23483480.512 3  23483479.375 6  23483479.578 7      3097.879 6      2415.967 3      2415.969 6      2315.302 7 123406466.695 6  96160926.049 3  96160922.043 6  92154224.294 7        37.400          22.900          41.100          47.600
G07  25052915.820 4                  25052920.582 5                     -1626.977 4                     -1263.664 5                 131654005.06014                 102587495.523 5                        28.900                          33.600
G08  20518444.508 8  20518451.305 9  20518451.867 8  20518450.434 9      1024.117 8       802.816 9       802.817 8       769.365 9 107825148.197 8  84019656.449 9  84019658.435 8  80518840.579 9        50.300          55.000          51.300          55.900
G10  21489742.648 8  21489748.781 9  21489748.789 8  21489747.691 8     -1272.887 8      -985.290 9      -985.290 8      -944.236 8 112929379.666 8  87996957.912 9  87996948.923 8  84330414.515 8        51.800          54.100          48.900          53.800
G16  23047598.656 7  23047602.590 5                                     -3493.309 7     -2719.364 5                                 121115914.083 7  94376086.193 5                                        43.200          30.100
G21  21672504.227 8  21672507.691 6                                      1463.004 8      1143.221 6                                 113889872.972 8  88745313.074 6                                        48.000          37.200
G22  24467077.969 5  24467080.133 2                                      3731.656 5                                                                                                                        31.900          17.400
G23  23491368.625 6  23491372.426 4  23491372.941 6  23491377.168 7     -3061.879 6     -2382.201 4     -2382.201 6     -2282.943 7 123447985.673 6  96193260.930 4  96193277.922 6  92185242.730 7        40.400          25.100          41.000          47.300
G26  25795603.938 5  25795611.242 3  25795610.461 5  25795610.246 6     -3626.289 5     -2827.152 3     -2827.152 5     -2709.354 6 135556839.103 5 105628714.561 3 105628743.608 5 101227552.048 6        34.300          21.800          32.500          37.100
G27  20460392.117 8  20460398.359 9  20460398.414 8  20460398.438 9     -1119.707 8      -867.288 9      -867.288 8      -831.151 9 107519990.730 8  83781938.400 9  83781939.395 8  80291030.402 9        52.400          55.000          51.500          56.600
G32  24525842.148 6  24525848.820 5  24525849.008 6  24525848.215 7      2743.676 6      2139.534 5      2139.534 6      2050.385 7 128884178.119 6 100429240.088 5 100429245.090 6  96244693.403 7        40.000          34.200          37.500          42.700
> 2022 01 01 00 03 30.0000000  0 11
G01  23465803.398 6  23465811.098 3  23465811.199 6  23465810.340 7      3092.438 6      2411.679 3      2411.679 6      2311.192 7 123313616.998 6  96088575.687 3  96088571.678 6  92084888.545 7        37.700          22.300          40.800          47.200
G07  25062234.258 5                  25062238.590 5                     -1637.723 5                     -1271.903 5                 131702973.42115                 102625652.617 5                        30.800                          33.100
G08  20512633.703 8  20512640.336 9  20512640.746 8  20512639.617 9      1011.793 8       793.161 9       793.160 8       760.112 9 107794611.514 8  83995861.629 9  83995863.639 8  80496037.214 9        50.800          55.600          51.000          56.000
G10  21497058.758 8  21497065.027 9  21497064.695 8  21497063.695 8     -1289.930 8      -998.595 9      -998.595 8      -956.987 8 112967825.576 8  88026915.767 9  88026906.771 8  84359124.129 8        51.600          54.200          49.200          53.900
G16  23067561.672 7  23067565.664 4                                     -3500.367 7     -2724.884 4                                 121220822.156 7  94457832.723 4                                        43.400          28.700
G21  21664176.305 8  21664180.434 6                                      1454.621 8      1136.658 6                                 113846111.647 8  88711213.340 6                                        48.100          37.300
G22  24445784.594 5  24445786.902 2                                      3728.152 5                                                 128463458.77215 100101415.93912                                        34.100          16.900
G23  23508876.109 6  23508880.246 4  23508880.391 7  23508883.934 7     -3071.332 6     -2389.630 4     -2389.630 7     -2290.062 7 123539986.442 6  96264949.832 4  96264966.828 7  92253944.577 7        40.000          25.500          42.400          46.700
G26  25816295.469 5  25816303.359 3  25816302.152 5  25816301.980 6     -3622.543 5     -2824.354 3     -2824.352 5     -2706.673 6 135665576.653 5 105713445.169 3 105713474.172 5 101308752.228 6        33.000          20.600          31.200          36.400
G27  20466823.031 8  20466829.289 9  20466829.234 8  20466829.293 9     -1133.168 8      -877.788 9      -877.788 8      -841.213 9 107553785.581 8  83808272.037 9  83808273.047 8  80316266.798 9        51.100          55.100          51.100          56.600
G32  24510190.563 6  24510197.133 5  24510197.734 6  24510197.039 7      2739.563 6      2136.330 5      2136.330 6      2047.316 7 128801929.425 6 100365150.197 5 100365155.183 6  96183273.933 7        40.400          34.400          38.100          42.600
> 2022 01 01 00 04 00.0000000  0 11
G01  23448165.422 6  23448174.316 3  23448174.414 6  23448172.910 7      3086.727 6      2407.371 3      2407.370 6      2307.063 7 123220933.171 6  96016354.564 3  96016350.574 6  92015676.639 7        37.900          21.300          41.100          47.500
G07  25071611.719 5  25071617.828 2  25071617.242 5                     -1648.219 5                     -1280.142 5                 131752256.024 5 102664084.67212 102664054.62315                        30.800          14.800          33.600
G08  20506893.906 8  20506900.355 9  20506901.176 8  20506899.840 9       999.266 8       783.461 9       783.461 8       750.817 9 107764448.268 8  83972357.803 9  83972359.813 8  80473512.709 9        50.800          56.000          51.400          56.200
G10  21504471.805 8  21504478.188 9  21504477.742 8  21504476.809 8     -1306.988 8     -1011.857 9     -1011.857 8      -969.696 8 113006782.087 8  88057271.485 9  88057262.482 8  84388215.002 8        51.500          54.000          49.400          53.800
G16  23087565.063 7  23087569.234 4                                     -3507.457 7     -2730.353 4                                 121325940.732 7  94539743.310 4                                        43.000          28.700
G21  21655896.773 8  21655900.633 6                                      1446.109 8      1130.101 6                                 113802602.732 8  88677310.312 6                                        48.000          37.300
G22  24424511.813 5  24424514.398 3                                      3724.363 5                                                 128351670.54515 100014308.28213                                        33.200          18.600
G23  23526437.352 6  23526441.414 4  23526441.066 6  23526445.246 7     -3080.813 6     -2396.990 4     -2396.990 6     -2297.116 7 123632270.564 6  96336859.531 4  96336876.538 6  92322858.070 7        40.800          26.200          41.800          46.700
G26  25836967.398 5  25836974.203 3  25836974.109 4  25836973.242 5     -3619.152 5     -2821.509 3     -2821.552 4     -2703.945 5 135774204.894 5 105798090.425 3 105798119.49014 101389870.589 5        32.500          20.900          29.900          35.000
G27  20473331.109 8  20473337.180 9  20473337.254 8  20473337.195 9     -1146.633 8      -888.286 9      -888.286 8      -851.274 9 107587984.602 8  83834920.614 9  83834921.616 8  80341805.031 9        52.000          54.900          51.200          56.600
G32  24494562.828 6  24494570.129 5  24494570.488 6  24494569.531 7      2735.367 6      2133.049 5      2133.048 6      2044.172 7 128719807.017 6 100301158.724 5 100301163.757 6  96121948.760 7        39.600          33.800          38.900          42.600
> 2022 01 01 00 04 30.0000000  0 10
G01  23430559.844 6  23430568.547 3  23430568.379 6  23430567.906 7      3081.113 6      2403.047 3      2403.047 6      2302.920 7 123128415.822 6  95944263.162 3  95944259.157 6  91946589.041 7        37.700          22.600          40.700          47.500
G07  25081050.289 5  25081055.137 2  25081054.293 5                     -1658.258 5     -1288.176 2     -1288.176 5                 131801850.822 5 102702729.943 2 102702699.905 5                        32.600          15.600          35.400
G08  20501225.297 8  20501231.535 9  20501232.098 8  20501231.219 9       986.715 8       773.740 9       773.740 8       741.501 9 107734659.300 8  83949145.608 9  83949147.610 8  80451267.690 9        50.800          55.800          51.300          56.100
G10  21511981.984 8  21511988.180 9  21511987.719 8  21511986.547 8     -1324.008 8     -1025.076 9     -1025.077 8      -982.365 8 113046247.517 8  88088023.769 9  88088014.781 8  84417685.954 8        51.600          54.100          49.300          53.700
G16  23107608.500 7  23107612.059 4                                     -3514.340 7     -2735.738 4                                 121431266.676 7  94621815.455 4                                        43.600          28.300
G21  21647665.195 7  21647668.891 6                                      1437.633 7      1123.549 6                                 113759346.115 7  88643603.854 6                                        47.800          37.700
G22  24403259.570 5  24403261.801 2                                      3720.828 5                                                 128239990.06315  99927284.55512                                        32.800          17.800
G23  23544050.336 6  23544055.656 4  23544055.563 6  23544059.059 7     -3090.098 6     -2404.281 4     -2404.281 6     -2304.102 7 123724835.379 6  96408987.949 4  96409004.960 6  92391981.118 7        38.100          24.700          41.900          45.900
G27  20479915.711 8  20479921.996 9  20479922.098 8  20479921.977 9     -1160.230 8      -898.782 9      -898.782 8      -861.332 9 107622587.717 8  83861884.074 9  83861885.076 8  80367644.996 9        51.600          55.000          51.600          56.600
G32  24478960.352 6  24478967.047 5  24478966.910 6  24478966.500 7      2730.934 6      2129.695 5      2129.696 6      2040.958 7 128637813.838 6 100237267.881 5 100237272.894 6  96060720.019 7        39.700          33.700          38.100          43.000
> 2022 01 01 00 05 00.0000000  0 11
G01  23412987.008 6  23412995.152 3  23412994.465 6  23412994.055 7      3075.680 6      2398.705 3      2398.705 6      2298.759 7 123036065.622 6  95872301.999 3  95872297.998 6  91877626.281 7        39.500          22.900          40.400          47.600
G07  25090547.750 5  25090552.328 2  25090551.492 5                     -1668.703 5     -1296.216 2     -1296.219 5                 131851755.321 5 102741616.426 2 102741586.470 5                        32.600          15.600          34.600
G08  20495628.164 8  20495634.492 9  20495635.215 8  20495634.191 9       974.227 8       763.976 9       763.977 8       732.144 9 107705246.211 8  83926226.316 9  83926228.312 8  80429303.381 9        50.500          56.100          51.500          56.200
G10  21519588.352 8  21519594.613 8  21519594.297 8  21519593.316 8     -1340.758 8     -1038.251 8     -1038.251 8      -994.991 8 113086220.180 8  88119171.305 8  88119162.302 8  84447535.671 8        51.300          53.900          48.900          53.800
G16  23127690.148 7  23127693.543 4                                     -3520.980 7     -2741.048 4                                 121536797.036 7  94704046.898 4                                        43.800          27.600
G21  21639481.805 7  21639485.547 6                                      1429.383 7      1117.004 6                                 113716341.460 7  88610093.741 6                                        47.600          36.500
G22  24382028.078 5  24382030.941 3                                      3717.238 5                                                 128128419.50115  99840346.46413                                        32.000          18.600
G23  23561718.797 6  23561723.504 4  23561723.047 6  23561727.090 7     -3099.293 6     -2411.503 4     -2411.503 6     -2311.024 7 123817678.237 6  96481333.033 4  96481350.047 6  92461311.844 7        40.000          27.400          41.400          46.000
G27  20486577.344 8  20486583.707 9  20486583.859 8  20486583.656 9     -1173.598 8      -909.275 9      -909.275 8      -871.389 9 107657594.823 8  83889162.327 9  83889163.322 8  80393786.659 9        52.600          54.900          51.600          56.600
G30  25505356.664 4                  25505362.836 5  25505362.238 6      -780.809 4                                                 134031682.50014                 104440192.64315 100088506.75016        28.600                          32.400          38.100
G32  24463383.320 6  24463389.109 5  24463389.844 6  24463389.824 7      2726.594 6      2126.262 5      2126.263 6      2037.669 7 128555952.737 6 100173480.017 5 100173485.015 6  95999589.959 7        38.300          33.300          37.900          43.400
> 2022 01 01 00 05 30.0000000  0 11
G01  23395445.086 6  23395453.277 3  23395453.027 6  23395452.352 7      3070.000 6      2394.337 3      2394.337 6      2294.573 7 122943883.586 6  95800471.875 3  95800467.888 6  91808789.109 7        39.300          22.500          40.100          47.400
G07  25100102.586 5  25100106.992 2  25100106.285 5                     -1678.734 5     -1304.256 2     -1304.186 5                 131901966.65115 102780742.06412 102780712.038 5                        33.000          16.900          34.800
G08  20490102.914 8  20490109.410 9  20490110.121 8  20490108.832 9       961.594 8       754.170 9       754.169 8       722.746 9 107676210.680 8  83903601.227 9  83903603.230 8  80407621.001 9        50.900          55.300          51.100          56.100
G10  21527291.047 8  21527297.508 9  21527297.320 8  21527296.332 8     -1357.656 8     -1051.390 9     -1051.390 8     -1007.582 8 113126698.703 8  88150713.007 9  88150704.012 8  84477763.138 8        52.000          54.000          49.000          53.700
G16  23147810.344 7  23147813.570 4                                     -3527.715 7     -2746.306 4                                 121642529.802 7  94786436.071 4                                        42.800          28.300
G21  21631346.391 7  21631349.984 6                                      1420.965 7      1110.462 6                                 113673588.655 7  88576779.875 6                                        47.800          37.300
G22  24360818.523 5  24360821.238 3                                      3713.203 5      2895.027 3                                 128016960.985 5  99753495.654 3                                        32.600          19.000
G23  23579438.367 6  23579442.953 4  23579442.867 7  23579447.762 7     -3108.484 6     -2418.664 4     -2418.662 7     -2317.884 7 123910796.770 6  96553892.941 4  96553909.919 7  92530848.369 7        39.200          24.900          42.000          47.500
G27  20493315.758 8  20493322.152 9  20493322.305 8  20493322.109 9     -1187.055 8      -919.773 9      -919.773 8      -881.449 9 107693006.090 8  83916755.509 9  83916756.503 8  80420230.128 9        52.300          55.200          51.400          56.600
G30  25509856.094 4                  25509864.555 5  25509863.711 6      -795.730 4                      -614.427 5      -588.824 6 134055337.88814                 104458625.451 5 100106171.465 6        29.100                          32.900          38.300
G32  24447831.180 6  24447837.832 5  24447838.301 6  24447838.426 7      2721.902 6      2122.748 5      2122.749 6      2034.299 7 128474226.968 6 100109797.592 5 100109802.558 6  95938560.991 7        39.900          35.400          38.300          44.000
> 2022 01 01 00 06 00.0000000  0 11
G01  23377935.672 6  23377943.109 3  23377942.824 6  23377942.383 7      3064.340 6      2389.957 3      2389.957 6      2290.374 7 122851870.251 6  95728773.178 3  95728769.180 6  91740077.892 7        38.300          22.200          38.800          46.500
G07  25109714.875 5  25109718.984 2  25109719.215 5                     -1688.945 5     -1312.297 2     -1312.097 5                 131952482.46915 102820104.91612 102820074.959 5                        33.400          15.600          34.900
G08  20484649.813 8  20484655.949 9  20484656.719 8  20484655.805 9       949.039 8       744.335 9       744.335 8       713.321 9 107647553.794 8  83881271.187 9  83881273.182 8  80386221.368 9        50.900          55.000          51.300          56.300
G10  21535089.898 8  21535096.352 8  21535095.938 8  21535094.973 8     -1374.398 8     -1064.484 8     -1064.484 8     -1020.130 8 113167681.334 8  88182647.518 8  88182638.528 8  84508367.043 8        51.500          53.900          48.700          53.800
G16  23167969.000 7  23167971.922 4                                     -3534.320 7     -2751.503 4                                 121748462.671 7  94868981.164 4                                        43.100          27.500
G21  21623258.500 7  21623262.363 6                                      1412.586 7      1103.932 6                                 113631087.276 7  88543661.916 6                                        47.600          37.800
G22  24339630.328 5  24339632.828 2                                      3709.684 5      2892.064 2                                 127905616.467 5  99666733.731 2                                        32.800          17.800
G23  23597210.320 6  23597215.070 4  23597214.863 6  23597218.219 7     -3117.598 6     -2425.751 4     -2425.752 6     -2324.679 7 124004188.223 6  96626665.468 4  96626682.474 6  92600588.735 7        39.000          25.700          41.800          46.000
G27  20500131.195 8  20500137.504 9  20500137.758 8  20500137.387 9     -1200.484 8      -930.267 9      -930.268 8      -891.506 9 107728821.396 8  83944663.529 9  83944664.531 8  80446975.314 9        51.900          55.000          51.600          56.700
G30  25514444.898 5                  25514450.965 5  25514451.066 6      -810.531 5                      -626.048 5      -599.967 6 134079440.85515                 104477406.902 5 100124170.472 6        30.300                          32.200          39.000
G32  24432306.133 6  24432311.984 5  24432312.152 6  24432311.875 7      2717.273 6      2119.156 5      2119.154 6      2030.857 7 128392639.484 6 100046222.926 5 100046227.943 6  95877635.271 7        39.800          35.000          38.400          43.200
> 2022 01 01 00 06 30.0000000  0 11
G01  23360457.805 6  23360466.074 3  23360466.234 6  23360464.969 7      3058.520 6      2385.555 3      2385.555 6      2286.156 7 122760026.336 6  95657206.540 3  95657202.535 6  91671493.207 7        38.800          22.300          38.800          46.600
G07  25119384.367 5  25119388.746 2  25119389.352 5                     -1698.918 5     -1319.938 2     -1319.936 5                 132003300.033 5 102859703.046 2 102859673.042 5                        34.000          13.900          35.200
G08  20479268.953 8  20479275.086 9  20479275.496 8  20479274.438 9       936.215 8       734.477 9       734.476 8       703.873 9 107619276.460 8  83859236.893 9  83859238.901 8  80365105.185 9        50.200          55.100          51.300          56.100
G10  21542984.258 8  21542990.543 8  21542990.199 8  21542989.109 8     -1391.227 8     -1077.534 8     -1077.534 8     -1032.636 8 113209166.383 8  88214973.534 8  88214964.539 8  84539346.137 8        51.300          53.800          48.500          53.500
G16  23188164.750 7  23188167.609 4                                     -3540.957 7     -2756.608 4                                 121854592.089 7  94951679.415 4                                        44.100          27.700
G21  21615218.367 7  21615222.285 6                                      1404.164 7      1097.414 6                                 113588836.829 7  88510739.506 6                                        47.500          36.900
G22  24318464.352 5  24318466.559 3                                      3705.551 5      2889.040 3                                 127794388.366 5  99580062.528 3                                        33.300          18.600
G23  23615034.000 6  23615038.102 4  23615038.109 6  23615041.824 7     -3126.531 6     -2432.772 4     -2432.772 6     -2331.406 7 124097849.957 6  96699648.639 4  96699665.635 6  92670530.928 7        40.000          25.200          40.900          46.600
G27  20507023.758 8  20507029.871 9  20507030.016 8  20507029.758 9     -1214.094 8      -940.759 9      -940.759 8      -901.561 9 107765040.637 8  83972886.307 9  83972887.309 8  80474022.137 9        52.600          54.900          51.900          56.400
G30  25519116.242 4                  25519122.750 5  25519122.320 6      -826.109 4                      -637.635 5      -611.065 6                                 104496535.957 5 100142502.436 6        29.900                          33.100          39.000
G32  24416807.016 6  24416813.422 5  24416813.875 6  24416812.477 7      2712.445 6      2115.489 5      2115.490 6      2027.344 7 128311193.148 6  99982758.249 5  99982763.260 6  95816814.939 7        39.400          33.600          38.500          42.400
> 2022 01 01 00 07 00.0000000  0 11
G01  23343013.000 6  23343021.652 4  23343021.340 6  23343020.387 7      3052.824 6      2381.140 4      2381.140 6      2281.925 7 122668352.410 6  95585772.343 4  95585768.345 6  91603035.448 7        38.400          24.900          39.700          46.500
G07  25129111.039 5  25129116.566 2  25129116.914 5                     -1709.090 5     -1327.709 2     -1327.710 5                 132054416.933 5 102899534.330 2 102899504.336 5                        32.400          14.800          34.700
G08  20473960.164 8  20473966.645 9  20473967.250 8  20473966.305 9       923.422 8       724.561 9       724.561 8       694.371 9 107591380.868 8  83837500.064 9  83837502.066 8  80344274.053 9        51.500          55.300          51.500          56.400
G10  21550973.672 8  21550980.121 8  21550979.801 8  21550978.891 8     -1407.863 8     -1090.537 8     -1090.537 8     -1045.098 8 113251152.057 8  88247689.644 8  88247680.663 8  84570699.077 8        51.600          53.700          48.600          53.500
G16  23208397.070 7  23208400.207 4                                     -3547.441 7     -2761.658 4                                 121960915.880 7  95034529.144 4                                        43.500          28.900
G21  21607226.227 8  21607229.906 6                                      1395.754 8      1090.897 6                                 113546837.287 8  88478012.594 6                                        48.300          37.500
G22  24297321.648 5  24297323.047 3                                      3701.523 5      2885.969 3                                 127683278.563 5  99493483.472 3                                        33.000          18.600
G23  23632908.219 6  23632912.551 4  23632912.133 6  23632916.094 7     -3135.359 6     -2439.722 4     -2439.723 6     -2338.068 7 124191779.282 6  96772840.300 4  96772857.322 6  92740672.968 7        39.800          25.800          41.200          45.800
G27  20513993.109 8  20513998.977 9  20513999.133 8  20513998.852 9     -1227.539 8      -951.246 9      -951.245 8      -911.610 9 107801663.614 8  84001423.675 9  84001424.669 8  80501370.446 9        52.200          55.000          51.600          56.400
G30  25523872.852 5                  25523878.387 5  25523878.262 6      -840.449 5                      -649.175 5      -622.125 6 134128983.00115                 104516011.218 5 100161166.197 6        31.500                          33.200          39.100
G32  24401335.664 6  24401341.547 5  24401342.547 6  24401341.516 7      2707.629 6      2111.748 5      2111.748 6      2023.758 7 128229890.856 6  99919405.805 5  99919410.819 6  95756102.191 7        40.000          34.600          38.300          43.900
> 2022 01 01 00 07 30.0000000  0 11
G01  23325599.570 6  23325609.266 3  23325608.688 6  23325607.898 7      3047.223 6      2376.703 3      2376.703 6      2277.673 7 122576849.281 6  95514471.254 3  95514467.252 6  91534705.251 7        38.400          23.400          40.900          46.900
G07  25138894.953 5  25138900.660 2  25138900.656 5                     -1718.563 5     -1335.419 2     -1335.420 5                 132105830.700 5 102939596.908 2 102939566.921 5                        33.100          13.900          35.400
G08  20468724.852 8  20468731.109 9  20468731.660 8  20468730.633 9       910.711 8       714.637 9       714.637 8       684.860 9 107563867.341 8  83816060.957 9  83816062.959 8  80323728.244 9        50.900          56.100          51.200          56.300
G10  21559058.508 8  21559064.641 8  21559064.445 8  21559063.164 8     -1424.496 8     -1103.499 8     -1103.499 8     -1057.520 8 113293636.781 8  88280794.624 8  88280785.629 8  84602424.684 8        51.900          53.700          48.500          53.800
G16  23228666.422 7  23228669.707 4                                     -3553.723 7     -2766.629 4                                 122067431.112 7  95117528.018 4                                        43.800          27.900
G21  21599281.922 7  21599285.453 6                                      1387.375 7      1084.386 6                                 113505088.446 7  88445481.023 6                                        47.300          37.700
G22  24276200.500 5  24276202.496 2                                      3697.445 5      2882.833 2                                 127572289.478 5  99406998.466 2                                        34.100          17.800
G23  23650832.063 6  23650836.715 4  23650836.262 6  23650840.746 7     -3144.313 6     -2446.610 4     -2446.609 6     -2344.667 7 124285973.759 6  96846238.612 4  96846255.589 6  92811012.961 7        39.900          25.600          41.200          46.300
G27  20521038.727 8  20521045.059 9  20521044.980 8  20521044.828 9     -1240.969 8      -961.734 9      -961.734 8      -921.661 9 107838690.365 8  84030275.689 9  84030276.683 8  80529020.290 9        51.300          54.900          51.400          56.400
G30  25528711.867 5                  25528718.832 5  25528719.387 6      -855.109 5                      -660.679 5      -633.151 6                                 104535831.602 5 100180160.741 6        31.500                          32.900          40.200
G32  24385892.125 6  24385898.953 5  24385899.668 6  24385898.773 7      2702.668 6      2107.924 5      2107.924 6      2020.094 7 128148735.770 6  99856168.085 5  99856173.089 6  95695499.375 7        39.500          34.200          39.100          43.300
> 2022 01 01 00 08 00.0000000  0 11
G01  23308220.406 6  23308229.273 3  23308229.148 6  23308228.102 7      3041.355 6      2372.245 3      2372.245 6      2273.402 7 122485517.773 6  95443303.900 3  95443299.900 6  91466503.195 7        38.400          22.600          40.600          46.900
G07  25148734.492 5  25148740.152 2  25148740.160 5                     -1728.723 5     -1343.070 2     -1343.070 5                 132157539.046 5 102979889.009 2 102979859.031 5                        30.500          14.800          35.500
G08  20463562.141 8  20463568.414 9  20463569.156 8  20463568.027 9       897.781 8       704.671 9       704.671 8       675.310 9 107536737.522 8  83794920.833 9  83794922.835 8  80303468.956 9        50.500          55.400          51.900          56.200
G10  21567237.719 8  21567243.895 8  21567243.086 8  21567242.531 8     -1441.156 8     -1116.419 8     -1116.419 8     -1069.901 8 113336618.912 8  88314287.190 8  88314278.188 8  84634521.720 8        51.500          53.600          49.200          53.700
G16  23248971.602 7  23248974.840 4                                     -3560.063 7     -2771.547 4                                 122174135.695 7  95200674.436 4                                        43.200          28.200
G21  21591384.867 7  21591388.742 6                                      1378.934 7      1077.881 6                                 113463590.026 7  88413144.599 6                                        47.500          37.200
G22  24255104.133 5  24255106.055 3                                      3693.246 5      2879.645 3                                 127461423.141 5  99320609.112 3                                        34.000          19.600
G23  23668807.164 6  23668811.656 4  23668811.684 7  23668816.098 7     -3152.992 6     -2453.428 4     -2453.428 7     -2351.202 7 124380430.772 6  96919841.448 4  96919858.425 7  92881549.036 7        39.000          25.200          42.400          46.800
G27  20528161.672 8  20528167.875 9  20528168.137 8  20528167.664 9     -1254.555 8      -972.221 9      -972.221 8      -931.712 9 107876120.897 8  84059442.325 9  84059443.319 8  80556971.645 9        52.200          54.900          51.700          56.400
G30  25533636.922 5                  25533642.934 5  25533643.277 6      -870.004 5                      -672.144 5      -644.137 6 134180296.67015                 104555995.920 5 100199484.864 6        32.900                          32.200          40.500
G32  24370476.547 6  24370483.961 5  24370483.871 6  24370483.539 7      2697.469 6      2104.023 5      2104.025 6      2016.356 7 128067730.884 6  99793047.385 5  99793052.352 6  95635008.704 7        38.700          34.000          38.500          43.600
> 2022 01 01 00 08 30.0000000  0 11
G01  23290873.352 6  23290881.797 3  23290881.379 6  23290880.910 7      3035.816 6      2367.770 3      2367.770 6      2269.112 7 122394358.585 6  95372270.817 3  95372266.813 6  91398429.829 7        38.500          23.000          40.100          46.900
G07  25158630.633 5  25158635.957 2  25158635.832 6                     -1737.980 5     -1350.646 2     -1350.648 6                 132209538.994 5 103020408.385 2 103020378.461 6                        34.100          16.300          36.100
G08  20458472.789 8  20458478.945 9  20458479.875 8  20458478.711 9       884.988 8       694.662 9       694.663 8       665.718 9 107509993.030 8  83774080.963 9  83774082.958 8  80283497.409 9        51.000          55.400          51.200          56.400
G10  21575511.211 8  21575517.449 8  21575517.262 8  21575516.168 8     -1457.453 8     -1129.295 8     -1129.296 8     -1082.241 8 113380096.771 8  88348166.034 8  88348157.053 8  84666988.949 8        51.500          53.400          48.800          53.500
G16  23269312.578 7  23269315.602 4                                     -3566.117 7     -2776.382 4                                 122281026.415 7  95283965.907 4                                        43.700          29.000
G21  21583535.508 7  21583539.438 6                                      1370.777 7      1071.393 6                                 113422341.369 7  88381002.809 6                                        47.300          37.600
G22  24234030.789 5  24234032.113 3                                      3689.090 5      2876.457 3                                 127350681.91615  99234317.28613                                        34.200          18.600
G23  23686830.781 6  23686836.055 4  23686835.578 7  23686839.844 7     -3161.570 6     -2460.181 4     -2460.182 7     -2357.674 7 124475147.775 6  96993646.887 4  96993663.886 7  92952279.251 7        38.900          25.500          42.200          47.000
G27  20535361.297 8  20535367.422 9  20535367.406 8  20535367.234 9     -1267.902 8      -982.706 9      -982.706 8      -941.760 9 107913955.093 8  84088923.505 9  84088924.499 8  80585224.441 9        53.000          55.000          51.300          56.400
G30  25538642.859 5                  25538651.660 5  25538650.336 6      -884.453 5                      -683.568 5      -655.086 6 134206614.095 5                 104576502.945 5 100219137.448 6        30.500                          34.700          39.800
G32  24355091.969 6  24355098.160 5  24355098.754 6  24355097.484 7      2692.398 6      2100.043 5      2100.041 6      2012.541 7 127986879.192 6  99730046.093 5  99730051.131 6  95574632.461 7        40.300          34.200          38.300          42.800
> 2022 01 01 00 09 00.0000000  0 11
G01  23273559.445 6  23273567.395 3  23273567.152 6  23273566.672 7      3030.133 6      2363.284 3      2363.283 6      2264.813 7 122303372.087 6  95301372.288 3  95301368.317 6  91330485.436 7        38.100          23.000          40.000          46.900
G07  25168580.906 5  25168585.809 2  25168586.402 6                     -1747.641 5     -1358.163 2     -1358.161 6                 132261828.339 5 103061153.270 2 103061123.297 6                        34.500          15.600          36.200
G08  20453457.172 8  20453463.352 9  20453463.988 8  20453462.801 9       872.164 8       684.633 9       684.633 8       656.106 9 107483634.661 8  83753541.977 9  83753543.979 8  80263814.225 9        51.700          55.300          52.100          56.300
G10  21583878.594 8  21583884.785 8  21583884.934 8  21583883.777 8     -1473.934 8     -1142.120 8     -1142.120 8     -1094.532 8 113424068.369 8  88382429.624 8  88382420.643 8  84699824.897 8        51.100          53.400          48.400          53.400
G16  23289687.766 7  23289691.215 4                                     -3572.250 7     -2781.153 4                                 122388100.768 7  95367400.496 4                                        42.700          28.000
G21  21575733.672 7  21575737.383 6                                      1362.445 7      1064.913 6                                 113381342.189 7  88349055.411 6                                        47.300          37.900
G22  24212980.453 5  24212983.445 3                                      3685.191 5      2873.098 3                                 127240067.587 5  99148124.338 3                                        34.600          19.300
G23  23704904.492 6  23704909.109 4  23704908.496 6  23704912.105 7     -3170.262 6     -2466.860 4     -2466.860 6     -2364.074 7 124570121.932 6  97067652.697 4  97067669.678 6  93023201.480 7        39.500          25.100          41.700          46.000
G27  20542637.734 8  20542643.762 9  20542643.707 8  20542643.582 9     -1281.355 8      -993.181 9      -993.182 8      -951.799 9 107952192.583 8  84118718.950 9  84118719.951 8  80613778.417 9        52.400          55.000          51.700          56.300
G30  25543735.719 5  25543742.773 2  25543742.863 5  25543742.148 6      -899.363 5                      -694.943 5      -665.986 6 134233369.430 5 104597354.19312 104597351.239 5 100239117.035 6        31.900          16.300          34.800          40.100
G32  24339736.680 6  24339742.297 5  24339742.449 6  24339741.844 7      2687.254 6      2095.993 5      2095.993 6      2008.660 7 127906183.505 6  99667166.300 5  99667171.327 6  95514372.672 7        40.700          34.000          39.200          43.400
> 2022 01 01 00 09 30.0000000  0 11
G01  23256278.578 6  23256286.270 3  23256286.258 6  23256285.645 7      3024.270 6      2358.777 3      2358.777 6      2260.495 7 122212559.076 6  95230608.990 3  95230605.001 6  91262670.594 7        38.800          23.000          40.500          47.200
G07  25178585.398 5  25178590.809 2  25178591.145 5                     -1757.234 5     -1365.599 2     -1365.598 5                 132314403.938 5 103102121.230 2 103102091.228 5                        35.700          15.600          35.200
G08  20448514.523 8  20448521.215 9  20448521.766 8  20448520.828 9       859.199 8       674.567 9       674.567 8       646.460 9 107457663.850 8  83733304.970 9  83733306.966 8  80244420.424 9        52.100          55.500          51.300          56.600
G10  21592339.883 8  21592346.168 8  21592345.801 8  21592344.945 8     -1490.270 8     -1154.897 8     -1154.896 8     -1106.776 8 113468531.883 8  88417076.523 8  88417067.528 8  84733028.166 8        51.500          53.400          48.700          53.700
G16  23310097.984 7  23310101.484 4                                     -3578.129 7     -2785.847 4                                 122495355.910 7  95450975.916 4                                        42.500          27.300
G21  21567979.688 7  21567982.746 6                                      1354.199 7      1058.437 6                                 113340592.365 7  88317302.302 6                                        47.900          38.400
G22  24191955.883 5  24191958.980 3                                      3680.648 5      2869.750 3                                 127129582.128 5  99062031.828 3                                        34.800          19.300
G23  23723025.609 6  23723029.102 4  23723029.855 6  23723033.578 7     -3178.406 6     -2473.471 4     -2473.472 6     -2370.409 7 124665350.519 6  97141856.818 4  97141873.832 6  93094313.763 7        40.100          24.500          40.900          46.100
