     3.05           OBSERVATION DATA    M (MIXED)           RINEX VERSION / TYPE
cnvtToRINEX 3.14.0  REGINA              20220102 000620 UTC PGM / RUN BY / DATE 
gfzrnx-2.1.7        FILE PROCESSING     20240710 181312 UTC COMMENT             
INITIAL_RINEX_VERSION: 3.04                                 COMMENT             
TLSE                                                        MARKER NAME         
10003M009                                                   MARKER NUMBER       
Automatic           CNES                                    OBSERVER / AGENCY   
5048K71845          TRIMBLE NETR9       5.45                REC # / TYPE / VERS 
5129354206          TRM59800.00     NONE                    ANT # / TYPE        
        1.0530        0.0000        0.0000                  ANTENNA: DELTA H/E/N
  4627853.3468   119640.2373  4372995.2492                  APPROX POSITION XYZ 
C   12 C2I C6I C7I D2I D6I D7I L2I L6I L7I S2I S6I S7I      SYS / # / OBS TYPES 
E   16 C1X C5X C7X C8X D1X D5X D7X D8X L1X L5X L7X L8X S1X  SYS / # / OBS TYPES 
       S5X S7X S8X                                          SYS / # / OBS TYPES 
G   16 C1C C2W C2X C5X D1C D2W D2X D5X L1C L2W L2X L5X S1C  SYS / # / OBS TYPES 
       S2W S2X S5X                                          SYS / # / OBS TYPES 
R   16 C1C C1P C2C C2P D1C D1P D2C D2P L1C L1P L2C L2P S1C  SYS / # / OBS TYPES 
       S1P S2C S2P                                          SYS / # / OBS TYPES 
S    8 C1C C5I D1C D5I L1C L5I S1C S5I                      SYS / # / OBS TYPES 
----------------------------------------------------------- COMMENT             
GEODETIC                                                    MARKER TYPE         
     0                                                      RCV CLOCK OFFS APPL 
 23 R01  1 R02 -4 R03  5 R04  6 R05  1 R06 -4 R07  5 R08  6 GLONASS SLOT / FRQ #
    R09 -2 R10 -7 R11  0 R12 -1 R13 -2 R14 -7 R15  0 R17  4 GLONASS SLOT / FRQ #
    R18 -3 R19  3 R20  2 R21  4 R22 -3 R23  3 R24  2        GLONASS SLOT / FRQ #
G L2X -0.25000                                              SYS / PHASE SHIFT   
R L1P  0.25000                                              SYS / PHASE SHIFT   
R L2C -0.25000                                              SYS / PHASE SHIFT   
R L2P  0.00000                                              SYS / PHASE SHIFT   
    18                                                      LEAP SECONDS        
DBHZ                                                        SIGNAL STRENGTH UNIT
 C1C    0.000 C1P    0.000 C2C    0.000 C2P    0.000        GLONASS COD/PHS/BIS 
C                                                           SYS / PHASE SHIFT   
E                                                           SYS / PHASE SHIFT   
S                                                           SYS / PHASE SHIFT   
GFZRNX.NUM_EPOCHS: 29                                       COMMENT
    39                                                      # OF SATELLITES     
   C05    29    29    29    29    28    28    29    29    29PRN / # OF OBS      
          29    29    29                                    PRN / # OF OBS      
   C06    29    29    29    29    28    28    29    29    29PRN / # OF OBS      
          29    29    29                                    PRN / # OF OBS      
   C16    29    29    29    29    28    28    29    29    29PRN / # OF OBS      
          29    29    29                                    PRN / # OF OBS      
   C20    29    29          29    28          29    29      PRN / # OF OBS      
          29    29                                          PRN / # OF OBS      
   C26    22    22          22    21          22    22      PRN / # OF OBS      
          22    22                                          PRN / # OF OBS      
   C27    29    29          29    28          29    29      PRN / # OF OBS      
          29    29                                          PRN / # OF OBS      
   C29    29    29          29    28          29    29      PRN / # OF OBS      
          29    29                                          PRN / # OF OBS      
   C30    29    29          29    28          29    29      PRN / # OF OBS      
          29    29                                          PRN / # OF OBS      
   E01    29    29    29    29    29    28    28    28    29PRN / # OF OBS      
          29    29    29    29    29    29    29            PRN / # OF OBS      
   E07    29    29    29    29    29    28    28    28    29PRN / # OF OBS      
          29    29    29    29    29    29    29            PRN / # OF OBS      
   E08    29    29    29    29    29    28    28    28    29PRN / # OF OBS      
          29    29    29    29    29    29    29            PRN / # OF OBS      
   E13    29    29    29    29    29    28    28    28    29PRN / # OF OBS      
          29    29    29    29    29    29    29            PRN / # OF OBS      
   E21    29    29    29    29    29    28    28    28    29PRN / # OF OBS      
          29    29    29    29    29    29    29            PRN / # OF OBS      
   E24    29    29    29    29    29    28    28    28    29PRN / # OF OBS      
          29    29    29    29    29    29    29            PRN / # OF OBS      
   E26    29    29    29    29    29    28    28    28    29PRN / # OF OBS      
          29    29    29    29    29    29    29            PRN / # OF OBS      
   E31    29    29    29    29    29    28    28    28    29PRN / # OF OBS      
          29    29    29    29    29    29    29            PRN / # OF OBS      
   E33    29    29    29    29    29    28    28    28    29PRN / # OF OBS      
          29    29    29    29    29    29    29            PRN / # OF OBS      
   G01    29    29    29    29    29    28    28    28    29PRN / # OF OBS      
          29    29    29    29    29    29    29            PRN / # OF OBS      
   G07    26    14    22          26    13    21          26PRN / # OF OBS      
          14    22          26    14    22                  PRN / # OF OBS      
   G08    29    29    29    29    29    28    28    28    29PRN / # OF OBS      
          29    29    29    29    29    29    29            PRN / # OF OBS      
   G10    29    29    29    29    29    28    28    28    29PRN / # OF OBS      
          29    29    29    29    29    29    29            PRN / # OF OBS      
   G16    29    29                29    28                29PRN / # OF OBS      
          29                29    29                        PRN / # OF OBS      
   G21    29    29                29    28                29PRN / # OF OBS      
          29                29    29                        PRN / # OF OBS      
   G22    29    29                29    18                23PRN / # OF OBS      
          23                29    29                        PRN / # OF OBS      
   G23    29    29    29    29    29    28    28    28    29PRN / # OF OBS      
          29    29    29    29    29    29    29            PRN / # OF OBS      
   G26     9     9     9     9     9     8     8     8     9PRN / # OF OBS      
           9     9     9     9     9     9     9            PRN / # OF OBS      
   G27    29    29    29    29    29    28    28    28    29PRN / # OF OBS      
          29    29    29    29    29    29    29            PRN / # OF OBS      
   G30    25    11    25    25    25    10    23    23    22PRN / # OF OBS      
          11    25    25    25    11    25    25            PRN / # OF OBS      
   G32    29    29    29    29    29    28    28    28    29PRN / # OF OBS      
          29    29    29    29    29    29    29            PRN / # OF OBS      
   R01    29    29    29    29    29    28    28    28    29PRN / # OF OBS      
          29    29    29    29    29    29    29            PRN / # OF OBS      
   R02    13    13    13    13    13    12    12    12    13PRN / # OF OBS      
          13    13    13    13    13    13    13            PRN / # OF OBS      
   R07    29    29    29    29    29    28    28    28    29PRN / # OF OBS      
          29    29    29    29    29    29    29            PRN / # OF OBS      
   R08    29    29    29    29    29    28    28    28    29PRN / # OF OBS      
          29    29    29    29    29    29    29            PRN / # OF OBS      
   R14    29    29    29    29    29    28    28    28    29PRN / # OF OBS      
          29    29    29    29    29    29    29            PRN / # OF OBS      
   R15    29    29    29    29    29    28    28    28    29PRN / # OF OBS      
          29    29    29    29    29    29    29            PRN / # OF OBS      
   R17    29    29    29    29    29    28    28    28    29PRN / # OF OBS      
          29    29    29    29    29    29    29            PRN / # OF OBS      
   R23    29    29                29    28                29PRN / # OF OBS      
          29                29    29                        PRN / # OF OBS      
   R24    29    29    29    29    29    28    28    28    29PRN / # OF OBS      
          29    29    29    29    29    29    29            PRN / # OF OBS      
   S36    29    29    29    28    29    29    29    29      PRN / # OF OBS      
    30.000                                                  INTERVAL            
  2022     1     1     0     0    0.0000000     GPS         TIME OF FIRST OBS   
  2022     1     1     0    14    0.0000000     GPS         TIME OF LAST OBS    
                                                            END OF HEADER      
> 2022 01 01 00 00 00.0000000  0 37
C05  39857654.125 5  39857643.496 6  39857648.457 6         1.488 5                                 207549301.853 5 168650734.612 6 160490230.569 6        35.000          37.300          38.400
C06  41062460.477 5  41062449.172 5  41062456.027 5      1780.016 5                                 213822999.773 5 173748661.196 5 165341499.267 5        32.200          34.100          35.200
C16  41227226.938 5  41227216.953 5  41227226.957 5      1611.266 5                                 214680985.944 5 174445848.541 5 166004956.441 5        35.400          32.400          34.700
C20  25465285.391 7  25465268.879 7                      3421.609 7                                 132604425.607 7 107751952.445 7                        42.700          42.000
C27  23897597.844 7  23897589.371 7                     -2226.031 7                                 124441100.643 7 101118566.381 7                        46.000          46.200
C29  23728095.750 7  23728085.707 7                      2278.520 7                                 123558441.057 7 100401327.361 7                        46.400          46.400
C30  21536078.773 8  21536071.387 8                       -31.645 8                                 112144044.956 8  91126255.621 8                        52.100          52.300
E01  25026444.320 8  25026448.969 8  25026446.434 8  25026447.984 8     -2164.398 8                                                 131514856.010 8  98209165.579 8 100771133.091 8  99490149.445 8        48.000          50.900          50.300          53.800
E07  26672277.336 7  26672282.742 7  26672280.641 7  26672281.879 8      2166.523 7                                                 140163762.223 7 104667771.403 7 107398224.279 7 106032995.944 8        43.100          45.100          44.900          48.600
E08  25169175.008 6  25169177.270 7  25169175.344 7  25169176.816 7         4.352 6                                                 132264916.627 6  98769272.289 7 101345855.071 7 100057562.783 7        41.900          43.000          43.700          46.400
E13  26529543.281 7  26529547.957 7  26529545.258 7  26529546.559 7     -2168.102 7                                                 139413721.795 7 104107678.028 7 106823524.979 7 105465598.609 7        42.100          44.800          44.000          47.700
E21  27881659.422 6  27881663.992 6  27881662.254 6  27881663.164 7     -3224.234 6                                                 146519141.361 6 109413680.732 6 112267945.976 6 110840814.962 7        39.900          40.900          40.200          43.700
E24  28867382.453 5  28867385.285 6  28867383.473 6  28867384.004 7      2543.723 5                                                 151699118.423 5 113281815.546 6 116236989.850 6 114759403.304 7        35.300          38.800          38.600          42.400
E26  23705108.586 8  23705111.223 9  23705108.762 9  23705110.184 9      -533.148 8                                                 124571220.153 8  93023991.968 9  95450695.051 9  94237344.617 9        51.300          54.100          54.000          56.700
E31  25435777.789 7  25435782.547 8  25435780.500 8  25435781.832 8       669.035 7                                                 133665909.281 7  99815470.277 8 102419341.645 8 101117407.077 8        46.600          48.900          49.100          52.300
E33  24857691.586 7  24857694.359 8  24857692.379 8  24857693.715 9      1451.344 7                                                 130628068.644 7  97546954.796 8 100091648.795 8  98819300.906 9        47.500          50.700          51.000          54.000
G01  23590139.203 6  23590148.227 3  23590147.465 6  23590146.297 7      3130.391 6                                                 123967008.572 6  96597711.760 3  96597707.774 6  92572810.567 7        38.600          22.000          40.900          45.400
G07  24998288.344 5                                                     -1562.125 5                                                 131366939.256 5                                                        34.900
G08  20554787.664 8  20554794.242 9  20554794.563 8  20554793.664 9      1097.641 8                                                 108016131.411 8  84168474.544 9  84168476.540 8  80661457.909 9        50.900          55.500          51.500          56.000
G10  21447903.727 8  21447910.074 9  21447909.977 8  21447908.996 9     -1169.531 8                                                 112709516.062 8  87825635.635 9  87825626.640 8  84166230.660 9        52.000          54.200          48.400          54.300
G16  22928686.734 7  22928690.602 5                                     -3449.199 7                                                 120491027.665 7  93889161.741 5                                        44.600          30.900
G21  21723481.234 8  21723484.727 6                                      1513.633 8                                                 114157760.066 8  88954056.191 6                                        48.000          36.600
G22  24595231.414 5  24595235.094 2                                      3751.094 5                                                 129248813.087 5 100713380.154 2                                        33.000          16.900
G23  23387486.727 6  23387490.699 4  23387491.023 7  23387493.402 7     -3003.113 6                                                 122902079.825 6  95767879.758 4  95767896.754 7  91777585.771 7        41.700          28.100          42.800          46.700
G26  25671033.578 6  25671040.719 4  25671040.234 5  25671039.859 6     -3646.793 6                                                 134902216.169 6 105118618.897 4 105118647.893 5 100738710.412 6        37.600          28.400          34.900          40.900
G27  20423421.984 8  20423428.113 9  20423428.262 8  20423428.043 9     -1038.910 8                                                 107325711.245 8  83630551.834 9  83630552.836 8  80145951.619 9        52.300          55.500          51.600          56.600
G30  25465085.734 4                  25465093.996 5  25465094.793 6      -628.926 4                                                 133820056.26314                 104275294.634 5  99930482.351 6        27.600                          32.500          37.300
G32  24620223.180 6  24620230.148 5  24620230.484 6  24620230.188 7      2766.563 6                                                 129380156.743 6 100815717.002 5 100815721.989 6  96615067.098 7        37.600          31.900          38.400          42.600
R01  21137439.484 7  21137438.125 7  21137443.746 6  21137444.273 6      3173.352 7                                                 112991777.685 7 112991790.695 7  87882479.102 6  87882479.112 6        43.900          43.600          40.600          39.700
R07  23554190.969 6  23554190.770 6  23554193.188 6  23554193.059 6     -3253.848 6                                                 126087473.005 6 126087408.019 6  98068018.088 6  98068022.088 6        41.300          40.800          37.900          37.100
R08  20998272.102 7  20998271.301 7  20998274.465 7  20998274.277 7      -230.910 7                                                 112444792.031 7 112444794.035 7  87457069.735 7  87457086.742 7        46.000          44.500          46.300          46.300
R14  21340214.664 8  21340214.328 7  21340218.914 7  21340219.066 7     -2504.035 8                                                 113755317.179 8 113755333.179 7  88476389.581 7  88476388.580 7        48.600          47.400          44.800          44.400
R15  21953892.969 7  21953892.148 7  21953896.156 7  21953895.688 7      1194.035 7                                                 117314943.309 7 117314980.307 7  91244952.919 7  91244961.926 7        46.700          45.500          42.600          42.500
R17  22597543.336 7  22597540.676 6  22597544.727 6  22597545.059 6      2843.605 7                                                 120924033.844 7 120924027.854 6  94052042.509 6  94052045.517 6        42.000          41.200          39.400          38.600
R23  20647178.094 8  20647177.258 7                                     -1740.789 8                                                 110448509.661 8 110448588.683 7                                        48.200          46.800
R24  19824341.367 8  19824341.277 8  19824344.758 8  19824344.637 7       703.086 8                                                 106009637.837 8 106009797.865 8  82451973.854 8  82452007.859 7        52.200          50.500          48.500          47.800
S36  37802786.000 7  37802778.359 7        -2.012 7                 198656485.550 7 148347113.354 7        44.900          46.400
> 2022 01 01 00 00 30.0000000  0 37
C05  39857646.250 5  39857636.180 6  39857641.203 6         1.137 5         1.057 6         1.006 6 207549262.830 5 168650702.898 6 160490200.382 6        35.800          37.300          37.900
C06  41052215.156 5  41052202.426 5  41052209.891 5      1776.875 5      1445.250 5      1375.319 5 213769642.024 5 173705303.685 5 165300239.697 5        32.000          34.600          35.700
C16  41217956.414 5  41217945.188 5  41217956.430 6      1607.074 5      1307.561 5      1244.291 6 214632711.617 5 174406621.700 5 165967627.727 6        35.200          31.200          36.400
C20  25445580.086 7  25445563.395 6                      3419.102 7      2779.341 6                 132501814.145 7 107668572.218 6                        43.800          41.900
C27  23910436.242 7  23910427.391 7                     -2230.820 7     -1810.756 7                 124507952.620 7 101172889.062 7                        46.100          45.500
C29  23714977.977 7  23714967.641 7                      2275.289 7      1850.196 7                 123490133.021 7 100345821.483 7                        45.800          46.300
C30  21536284.852 8  21536277.559 8                       -39.969 8       -29.061 8                 112145117.878 8  91127127.456 8                        52.000          52.000
E01  25038830.438 8  25038834.816 8  25038832.660 8  25038833.969 8     -2174.875 8     -1620.174 8     -1662.439 8     -1641.307 8 131579944.736 8  98257770.789 8 100821006.275 8  99539388.641 8        48.200          50.800          50.600          53.500
E07  26659932.227 7  26659937.238 7  26659934.934 7  26659936.813 8      2158.371 7      1614.824 7      1656.950 7      1635.887 8 140098888.414 7 104619326.683 7 107348515.783 7 105983919.338 8        42.700          45.400          44.700          48.700
E08  25169191.859 7  25169194.195 7  25169192.254 7  25169193.238 7       -10.129 7        -2.143 7        -2.199 7        -2.171 7 132265002.733 7  98769336.575 7 101345921.046 7 100057627.919 7        43.100          43.400          43.200          47.100
E13  26541922.883 7  26541928.012 7  26541924.141 7  26541926.379 7     -2168.926 7     -1619.359 7     -1661.604 7     -1640.482 7 139478777.856 7 104156258.808 7 106873373.100 7 105514813.065 7        42.200          45.000          43.700          47.700
E21  27900065.273 6  27900070.121 6  27900068.035 6  27900069.047 7     -3224.133 6     -2407.621 6     -2470.428 6     -2439.024 7 146615864.887 6 109485909.352 6 112342058.814 6 110913985.687 7        39.300          41.200          40.500          44.200
E24  28852881.578 5  28852884.031 6  28852882.207 6  28852883.266 6      2536.363 5      1896.819 6      1946.301 6      1921.560 6 151622915.827 5 113224910.971 6 116178600.835 6 114701756.498 6        35.300          38.300          38.200          41.800
E26  23708166.883 8  23708169.527 8  23708167.238 9  23708168.609 9      -538.344 8      -400.064 8      -410.501 9      -405.282 9 124587292.299 8  93035993.890 8  95463010.069 9  94249503.083 9        51.700          53.900          54.000          56.800
E31  25431999.211 7  25432004.211 8  25432002.289 8  25432003.547 8       654.590 7       494.223 8       507.116 8       500.670 8 133646054.375 7  99800643.574 8 102404128.152 8 101102386.968 8        47.400          49.000          49.300          52.400
E33  24849419.258 7  24849422.180 8  24849420.301 8  24849421.484 9      1446.645 7      1082.065 8      1110.293 8      1096.179 9 130584597.848 7  97514492.834 8 100058340.008 8  98786415.527 9        47.400          50.900          51.000          54.000
G01  23572284.180 6  23572292.625 3  23572292.461 6  23572291.352 7      3124.840 6      2437.138 3      2437.138 6      2335.590 7 123873178.745 6  96524597.623 3  96524593.629 6  92502742.868 7        38.100          22.600          40.800          45.600
G07  25007238.320 5                                                     -1573.164 5                                                 131413968.536 5                                                        33.900
G08  20548556.000 8  20548562.344 9  20548563.066 8  20548561.617 9      1085.387 8       850.596 9       850.596 8       815.154 9 107983383.471 8  84142956.668 9  84142958.662 8  80637003.283 9        50.100          55.400          51.400          55.700
G10  21454630.367 8  21454636.926 9  21454636.621 8  21454635.762 9     -1187.051 8      -918.162 9      -918.162 8      -879.906 9 112744865.306 8  87853180.497 9  87853171.501 8  84192627.826 9        51.000          54.100          48.700          54.100
G16  22948399.656 7  22948403.363 5                                     -3456.898 7     -2690.689 5                                 120594619.193 7  93969882.410 5                                        44.500          31.800
G21  21714864.398 7  21714867.898 6                                      1505.078 7      1176.163 6                                 114112477.744 7  88918771.288 6                                        47.400          36.700
G22  24573827.445 5  24573830.758 2                                      3747.766 5                                                 129136330.63815 100625731.51412                                        31.500          17.400
G23  23404659.016 6  23404663.125 4  23404663.359 6  23404667.801 7     -3013.195 6     -2344.034 4     -2344.034 6     -2246.366 7 122992325.139 6  95838200.777 4  95838217.765 6  91844976.758 7        39.800          26.200          41.800          47.200
G26  25691843.195 5  25691850.504 4  25691849.934 5  25691849.285 6     -3643.777 5     -2840.404 4     -2840.405 5     -2722.055 6 135011571.759 5 105203831.028 4 105203860.051 5 100820372.056 6        35.900          25.200          33.800          39.400
G27  20429391.484 8  20429397.609 9  20429397.734 8  20429397.480 9     -1052.492 8      -814.790 9      -814.790 8      -780.841 9 107357080.667 8  83654995.539 9  83654996.534 8  80169376.835 9        51.600          55.000          51.900          56.700
G30  25468721.148 4                  25468728.430 5  25468728.348 5      -644.555 4                      -496.100 5      -475.428 5 133839156.15414                 104290177.625 5  99944745.184 5        29.600                          30.500          35.300
G32  24604440.688 6  24604446.145 5  24604446.773 6  24604446.023 7      2762.961 6      2154.394 5      2154.393 6      2064.627 7 129297212.575 6 100751085.195 5 100751090.192 6  96553128.300 7        40.300          34.000          37.900          42.600
R01  21119678.969 7  21119678.355 7  21119683.801 6  21119684.301 6      3155.520 7      3164.505 7      2461.281 6      2461.281 6 112896842.521 7 112896855.544 7  87808640.662 6  87808640.666 6        44.600          43.600          40.500          40.000
R07  23572470.820 6  23572469.637 6  23572474.918 6  23572475.141 6     -3270.133 6     -3261.914 6     -2537.045 6     -2537.045 6 126185330.439 6 126185265.441 6  98144129.451 6  98144133.451 6        39.300          38.000          40.100          38.900
R08  20999641.211 7  20999640.777 7  20999643.879 7  20999643.984 7      -258.270 7      -244.473 7      -190.146 7      -190.146 7 112452126.218 7 112452128.230 7  87462774.112 7  87462791.112 7        46.000          44.700          46.500          45.700
R14  21354364.977 8  21354363.754 7  21354368.887 7  21354368.793 7     -2524.469 8     -2514.193 7     -1955.483 7     -1955.483 7 113830742.983 8 113830758.977 7  88535054.069 7  88535053.068 7        48.500          47.000          44.500          44.700
R15  21947261.750 7  21947261.438 7  21947263.902 7  21947264.574 7      1168.246 7      1181.174 7       918.690 7       918.691 7 117279508.097 7 117279545.089 7  91217392.205 7  91217401.209 7        47.100          45.200          42.800          43.000
R17  22581607.109 7  22581606.250 6  22581610.629 6  22581609.512 6      2841.242 7      2842.438 6      2210.784 6      2210.784 6 120838760.718 7 120838754.730 6  93985718.999 6  93985721.982 6        42.600          41.300          39.900          39.300
R23  20656963.320 8  20656962.023 7                                     -1748.641 8     -1744.672 7                                 110500849.844 8 110500928.845 7                                        48.400          46.800
R24  19820423.578 8  19820423.715 8  19820426.516 8  19820427.027 7       693.480 8       698.324 8       543.141 8       543.141 7 105988688.101 8 105988848.133 8  82435679.622 8  82435713.620 7        52.500          50.300          48.900          47.800
S36  37802796.375 7  37802788.320 7        -1.723 7        -1.313 7 198656540.993 7 148347152.740 7        45.000          46.300
> 2022 01 01 00 01 00.0000000  0 37
C05  39857639.766 5  39857628.941 6  39857634.285 6         1.316 5          .979 6          .932 6 207549226.674 5 168650673.514 6 160490172.424 6        35.700          37.300          37.100
C06  41041986.070 5  41041973.566 5  41041980.254 5      1773.805 5      1445.250 5      1375.319 5 213716378.36415 173662022.61115 165259052.87515        33.800          34.100          34.800
C16  41208708.414 6  41208697.496 5  41208708.172 5      1603.258 6      1304.415 5      1241.297 5 214584553.479 6 174367489.259 5 165930388.825 5        36.000          32.300          35.100
C20  25425888.188 7  25425871.211 6                      3416.672 7      2777.431 6                 132399273.189 7 107585249.279 6                        44.100          41.400
C27  23923300.813 7  23923291.641 7                     -2235.238 7     -1814.469 7                 124574941.663 7 101227323.125 7                        46.700          45.700
C29  23701877.594 7  23701867.328 7                      2272.336 7      1847.723 7                 123421916.271 7 100290389.787 7                        46.100          46.700
C30  21536537.750 8  21536530.582 8                       -48.051 8       -35.695 8                 112146435.709 8  91128198.296 8                        52.000          52.400
E01  25051275.648 7  25051279.945 8  25051278.285 8  25051279.203 8     -2185.254 7     -1627.926 8     -1670.393 8     -1649.159 8 131645344.902 7  98306608.563 8 100871118.075 8  99588863.425 8        47.900          50.400          51.200          53.800
E07  26647632.953 7  26647639.113 7  26647636.051 7  26647637.570 8      2150.367 7      1608.824 7      1650.792 7      1629.808 8 140034255.684 7 104571061.974 7 107298992.011 7 105935025.105 8        43.600          46.200          45.200          49.600
E08  25169289.070 7  25169292.035 7  25169288.918 7  25169290.973 7       -24.395 7       -12.784 7       -13.117 7       -12.951 7 132265516.264 7  98769720.100 7 101346314.565 7 100058016.435 7        42.700          43.600          43.600          46.800
E13  26554306.078 6  26554311.141 7  26554308.793 7  26554309.703 8     -2169.473 6     -1619.807 7     -1662.063 7     -1640.935 8 139543851.881 6 104204853.008 7 106923234.991 7 105564041.115 8        41.900          44.900          44.500          48.300
E21  27918469.109 6  27918474.465 6  27918472.500 6  27918473.266 7     -3223.613 6     -2407.397 6     -2470.199 6     -2438.799 7 146712579.469 6 109558131.273 6 112416164.798 6 110987149.650 7        39.200          41.000          40.400          44.800
E24  28838421.156 5  28838424.555 6  28838421.758 6  28838422.887 6      2529.586 5      1891.531 6      1940.875 6      1916.202 6 151546925.675 5 113168165.056 6 116120374.581 6 114644270.428 6        35.800          38.700          37.800          41.600
E26  23711254.445 8  23711257.160 8  23711254.988 8  23711256.145 9      -543.426 8      -403.870 8      -414.405 8      -409.138 9 124603517.334 8  93048109.983 8  95475442.230 8  94261777.208 9        51.700          53.600          53.900          56.800
E31  25428302.945 7  25428307.953 8  25428306.035 8  25428307.262 8       640.227 7       483.503 8       496.116 8       489.810 8 133626630.183 7  99786138.483 8 102389244.659 8 101087692.678 8        47.000          49.100          49.100          52.600
E33  24841173.133 7  24841176.090 8  24841174.234 8  24841175.148 8      1442.117 7      1078.679 8      1106.818 8      1092.748 8 130541263.092 7  97482132.478 8 100025135.469 8  98753633.075 8        47.700          50.400          50.800          53.900
G01  23554459.727 6  23554467.555 3  23554468.137 6  23554467.180 7      3119.570 6      2432.951 3      2432.951 6      2331.579 7 123779510.137 6  96451609.106 3  96451605.100 6  92432795.502 7        38.000          23.000          39.900          46.200
G07  25016249.422 5                                                     -1584.289 5                                                 131461326.871 5                                                        32.000
G08  20542393.609 8  20542400.008 9  20542400.746 8  20542399.531 9      1073.328 8       841.118 9       841.118 8       806.072 9 107951000.430 8  84117723.131 9  84117725.133 8  80612821.137 9        49.700          56.100          51.000          55.800
G10  21461455.867 8  21461462.531 9  21461462.039 8  21461461.305 9     -1204.301 8      -931.658 9      -931.658 8      -892.839 9 112780734.146 8  87881130.242 9  87881121.253 8  84219412.995 9        50.900          54.100          49.300          54.000
G16  22968155.391 7  22968159.438 5                                     -3464.340 7     -2696.557 5                                 120698436.650 7  94050779.127 5                                        44.200          30.200
G21  21706295.906 8  21706299.469 6                                      1496.680 8      1169.569 6                                 114067449.294 8  88883684.209 6                                        48.200          37.000
G22  24552439.867 5  24552443.297 2                                      3744.500 5                                                 129023940.64515 100538154.93712                                        32.300          17.800
G23  23421889.430 6  23421893.477 4  23421893.195 6  23421897.559 7     -3023.176 6     -2351.794 4     -2351.796 6     -2253.803 7 123082869.239 6  95908754.611 4  95908771.644 6  91912590.854 7        40.200          26.700          41.600          46.900
G26  25712633.453 5  25712640.984 4  25712641.621 5  25712640.715 6     -3640.320 5     -2837.850 4     -2837.849 5     -2719.604 6 135120828.952 5 105288966.523 4 105288995.530 5 100901960.186 6        35.400          24.700          33.800          40.100
G27  20435437.758 8  20435443.867 9  20435443.949 8  20435443.758 9     -1065.906 8      -825.279 9      -825.280 8      -790.893 9 107388853.939 8  83679753.922 9  83679754.924 8  80193103.619 9        52.100          55.200          51.900          56.700
G30  25472446.273 4                  25472451.320 5  25472450.078 5      -659.887 4                      -508.088 5      -486.920 5 133858717.43514                 104305420.273 5  99959352.791 5        28.600                          30.900          34.300
G32  24588677.125 6  24588683.578 5  24588683.832 6  24588683.523 7      2759.305 6      2151.584 5      2151.584 6      2061.936 7 129214376.611 6 100686537.665 5 100686542.676 6  96491270.237 7        40.000          34.100          38.700          42.700
R01  21102019.641 7  21102019.457 7  21102024.551 6  21102025.469 6      3137.543 7      3146.638 7      2447.385 6      2447.385 6 112802443.396 7 112802456.406 7  87735219.129 6  87735219.133 6        44.300          44.100          41.200          40.300
R07  23590842.609 7  23590842.359 6  23590844.965 6  23590844.848 6     -3285.875 7     -3277.885 6     -2549.465 6     -2549.465 6 126283666.975 7 126283601.977 6  98220613.414 6  98220617.399 6        43.000          41.900          38.700          38.600
R08  21001164.945 7  21001163.602 7  21001166.457 7  21001166.340 7      -285.371 7      -271.728 7      -211.344 7      -211.344 7 112460278.050 7 112460280.083 7  87469114.433 7  87469131.425 7        47.000          45.100          47.100          46.300
R14  21368628.477 7  21368626.523 7  21368632.941 7  21368632.504 7     -2544.516 7     -2534.388 7     -1971.189 7     -1971.190 7 113906774.610 7 113906790.612 7  88594189.744 7  88594188.756 7        47.600          46.700          45.000          44.100
R15  21940774.313 7  21940773.926 7  21940777.215 7  21940777.621 7      1142.605 7      1155.516 7       898.735 7       898.735 7 117244842.613 7 117244879.615 7  91190430.164 7  91190439.161 7        46.500          45.400          42.600          42.600
R17  22565684.297 7  22565683.852 6  22565688.016 6  22565687.449 6      2838.859 7      2840.098 6      2208.965 6      2208.965 6 120753557.773 7 120753551.798 6  93919450.059 6  93919453.047 6        42.600          41.600          40.000          38.900
R23  20666790.430 7  20666788.875 7                                     -1756.199 7     -1752.323 7                                 110553419.526 7 110553498.548 7                                        47.800          46.400
R24  19816559.820 8  19816559.473 8  19816561.805 8  19816562.070 8       684.102 8       688.881 8       535.797 8       535.796 8 105968021.669 8 105968181.693 8  82419605.724 8  82419639.727 8        52.800          50.800          49.100          48.500
S36  37802806.000 7  37802798.340 7        -1.926 7        -1.391 7 198656591.503 7 148347194.483 7        44.600          47.000
> 2022 01 01 00 01 30.0000000  0 37
C05  39857632.883 5  39857622.742 6  39857628.152 6          .973 5          .887 6          .844 6 207549193.943 5 168650646.914 6 160490147.105 6        35.600          37.400          37.900
C06  41031776.445 5  41031763.605 5  41031769.703 5      1770.406 5      1440.125 5      1370.441 5 213663209.882 5 173618818.868 5 165217939.659 5        33.600          33.100          34.800
C16  41199482.570 6  41199472.648 5  41199482.449 5      1599.336 6      1301.238 5      1238.276 5 214536512.589 6 174328452.108 5 165893240.555 5        36.400          33.700          34.500
C20  25406210.484 7  25406193.457 6                      3414.289 7      2775.446 6                 132296805.519 7 107501985.894 6                        43.900          41.800
C27  23936192.039 7  23936183.074 7                     -2239.906 7     -1818.193 7                 124642068.166 7 101281868.901 7                        46.100          45.600
C29  23688794.734 7  23688784.844 7                      2269.180 7      1845.220 7                 123353791.908 7 100235033.176 7                        46.000          46.500
C30  21536838.070 8  21536830.855 8                       -56.250 8       -42.354 8                 112147999.375 8  91129468.905 8                        52.200          52.400
E01  25063780.281 8  25063784.281 8  25063782.379 8  25063783.410 9     -2195.512 8     -1635.651 8     -1678.321 8     -1656.986 9 131711055.420 8  98355678.109 8 100921467.697 8  99638573.012 9        48.600          50.500          51.100          54.200
E07  26635380.031 7  26635386.355 7  26635383.355 7  26635384.645 8      2142.238 7      1602.762 7      1644.574 7      1623.668 8 139969866.431 7 104522979.122 7 107249654.791 7 105886315.061 8        43.800          46.000          45.400          48.800
E08  25169468.578 7  25169470.762 7  25169469.191 7  25169470.207 7       -38.559 7       -23.439 7       -24.051 7       -23.745 7 132266457.907 7  98770423.283 7 101347036.105 7 100058728.795 7        42.000          43.600          43.700          46.800
E13  26566692.711 7  26566697.285 7  26566694.984 7  26566696.277 7     -2170.066 7     -1620.265 7     -1662.532 7     -1641.398 7 139608944.288 7 104253460.950 7 106973110.945 7 105613283.057 7        42.500          44.000          43.800          47.500
E21  27936871.219 6  27936876.934 6  27936874.371 6  27936875.402 7     -3223.242 6     -2407.145 6     -2469.939 6     -2438.542 7 146809283.873 6 109630345.624 6 112490262.978 6 111060305.915 7        38.500          41.200          40.800          44.500
E24  28824001.594 6  28824004.004 6  28824002.465 6  28824003.313 6      2522.332 6      1886.186 6      1935.391 6      1910.788 6 151471150.224 6 113111579.482 6 116062312.864 6 114586946.777 6        37.100          38.100          38.400          41.900
E26  23714371.023 8  23714373.855 9  23714371.688 8  23714372.797 9      -548.516 8      -407.677 9      -418.312 8      -412.995 9 124619895.342 8  93060340.304 9  95487991.603 8  94274167.062 9        51.700          54.000          53.700          57.300
E31  25424688.930 7  25424693.918 8  25424691.711 8  25424693.141 8       625.813 7       472.754 8       485.087 8       478.921 8 133607637.804 7  99771955.851 8 102374692.051 8 101073325.059 8        46.500          49.300          49.400          52.700
E33  24832952.734 8  24832955.719 8  24832953.699 8  24832954.793 9      1437.633 8      1075.284 8      1103.335 8      1089.310 9 130498064.713 8  97449873.954 8  99992035.416 8  98720953.788 9        48.000          50.900          50.900          54.000
G01  23536666.297 6  23536674.379 3  23536674.359 6  23536673.445 7      3114.219 6      2428.735 3      2428.734 6      2327.536 7 123686003.862 6  96378747.068 3  96378743.085 6  92362969.410 7        39.000          23.900          41.000          46.400
G07  25025326.195 5                                                     -1594.852 5                                                 131509012.201 5                                                        32.300
G08  20536301.203 8  20536307.438 9  20536308.051 8  20536307.082 9      1061.035 8       831.595 9       831.596 8       796.946 9 107918984.007 8  84092775.271 9  84092777.266 8  80588912.767 9        50.600          55.900          50.900          55.900
G10  21468380.719 8  21468386.836 9  21468386.445 8  21468385.574 8     -1221.570 8      -945.128 9      -945.128 8      -905.748 8 112817121.588 8  87909484.096 9  87909475.108 8  84246585.430 8        49.900          54.300          48.800          53.900
G16  22987954.047 7  22987957.246 4                                     -3471.742 7     -2702.347 4                                 120802477.031 7  94131849.540 4                                        43.800          29.600
G21  21697775.852 8  21697779.273 6                                      1488.191 8      1162.973 6                                 114022674.824 8  88848795.010 6                                        48.000          37.500
G22  24531070.438 5  24531074.730 2                                      3741.457 5                                                 128911645.57115 100450652.26912                                        31.600          16.900
G23  23439175.602 6  23439179.828 4  23439180.168 7  23439184.207 7     -3032.949 6     -2359.500 4     -2359.500 7     -2261.187 7 123173709.997 6  95979539.625 4  95979556.644 7  91980426.463 7        39.400          26.700          42.500          47.200
G26  25733405.867 6  25733413.301 4  25733412.527 5  25733413.145 6     -3636.914 6     -2835.260 4     -2835.260 5     -2717.124 6 135229986.499 6 105374024.315 4 105374053.321 5 100983473.909 6        36.800          27.300          35.700          41.100
G27  20441561.063 8  20441567.066 9  20441567.098 8  20441566.984 9     -1079.387 8      -835.784 9      -835.784 8      -800.959 9 107421031.635 8  83704827.447 9  83704828.442 8  80217132.403 9        51.200          55.000          51.200          56.700
G30  25476252.109 4                  25476260.703 5  25476261.039 5      -674.578 4                      -520.051 5      -498.383 5 133878739.37514                 104321021.805 5  99974304.281 5        25.900                          30.600          35.800
G32  24572934.531 6  24572941.898 5  24572941.676 6  24572941.488 7      2755.617 6      2148.685 5      2148.686 6      2059.156 7 129131652.247 6 100622077.119 5 100622082.107 6  96429495.547 7        40.300          34.300          39.000          42.900
R01  21084461.414 7  21084461.305 7  21084466.781 6  21084467.250 6      3119.547 7      3128.626 7      2433.376 6      2433.376 6 112708584.609 7 112708597.611 7  87662217.855 6  87662217.865 6        45.000          43.500          41.100          40.000
R07  23609299.266 6  23609298.945 6  23609302.672 6  23609302.344 6     -3301.766 6     -3293.768 6     -2561.820 6     -2561.820 6 126382480.008 6 126382415.006 6  98297467.998 6  98297472.006 6        38.800          37.500          37.400          36.900
R08  21002838.563 7  21002838.172 7  21002841.535 7  21002841.309 7      -312.676 7      -298.998 7      -232.555 7      -232.555 7 112469248.009 7 112469250.027 7  87476091.079 7  87476108.079 7        46.800          45.000          46.900          46.200
R14  21383004.469 7  21383003.336 7  21383008.969 7  21383009.289 7     -2564.563 7     -2554.475 7     -1986.813 7     -1986.812 7 113983408.842 7 113983424.852 7  88653794.122 7  88653793.120 7        47.100          46.400          45.300          44.500
R15  21934430.313 7  21934431.629 7  21934434.887 7  21934434.672 7      1116.879 7      1129.788 7       878.725 7       878.724 7 117210948.967 7 117210985.964 7  91164068.418 7  91164077.430 7        47.300          45.900          42.500          42.700
R17  22549775.820 7  22549775.320 6  22549778.270 6  22549778.363 6      2836.563 7      2837.727 6      2207.119 6      2207.119 6 120668425.979 7 120668420.003 6  93853236.487 6  93853239.463 6        43.700          41.400          40.600          39.700
R23  20676660.977 8  20676659.996 7                                     -1763.797 8     -1759.983 7                                 110606219.018 8 110606298.026 7                                        48.900          47.000
R24  19812748.039 8  19812747.789 8  19812750.820 8  19812750.602 8       674.551 8       679.385 8       528.411 8       528.411 8 105947640.115 8 105947800.134 8  82403753.395 8  82403787.399 8        52.300          51.300          48.600          48.100
S36  37802816.750 7  37802808.371 7        -1.641 7        -1.355 7 198656645.482 7 148347235.136 7        44.900          46.500
> 2022 01 01 00 02 00.0000000  0 37
C05  39857627.617 5  39857617.188 6  39857622.250 6          .879 5          .797 6          .758 6 207549164.529 5 168650623.013 6 160490124.361 6        35.100          37.300          38.300
C06  41021583.531 5  41021570.867 5  41021578.301 5      1767.477 5      1437.534 5      1367.975 5 213610137.098 5 173575692.854 5 165176900.420 5        32.900          32.700          34.700
C16  41190279.641 5  41190268.734 5  41190278.828 5      1595.426 5      1298.052 5      1235.243 5 214488589.335 5 174289510.552 5 165856183.258 5        35.900          32.300          34.400
C20  25386546.781 7  25386529.984 7                      3411.723 7      2773.398 7                 132194413.468 7 107418783.964 7                        43.700          42.100
C27  23949108.875 7  23949100.348 7                     -2244.512 7     -1821.911 7                 124709331.953 7 101336526.218 7                        46.300          45.800
C29  23675729.789 7  23675720.109 7                      2266.117 7      1842.700 7                 123285760.604 7 100179752.182 7                        45.800          46.500
C30  21537185.781 8  21537178.570 8                       -64.527 8       -49.025 8                 112149809.364 8  91130939.663 8                        52.500          52.500
E01  25076343.039 8  25076347.297 8  25076345.395 8  25076346.465 8     -2205.895 8     -1643.339 8     -1686.208 8     -1664.774 8 131777074.776 8  98404978.281 8 100972053.942 8  99688516.222 8        48.200          50.000          51.200          53.600
E07  26623173.773 7  26623179.617 7  26623177.301 7  26623178.402 8      2133.938 7      1596.654 7      1638.305 7      1617.479 8 139905722.598 7 104475079.512 7 107200505.642 7 105837790.682 8        43.700          45.700          45.000          49.200
E08  25169729.320 7  25169730.535 7  25169729.141 7  25169730.863 7       -52.906 7       -34.101 7       -34.991 7       -34.546 7 132267827.874 7  98771446.324 7 101348085.826 7 100059765.178 7        42.400          43.100          43.400          46.900
E13  26579083.125 7  26579087.254 7  26579084.137 7  26579086.453 8     -2170.641 7     -1620.717 7     -1662.996 7     -1641.857 8 139674054.852 7 104302082.448 7 107023000.837 7 105662538.754 8        42.000          44.500          43.400          48.000
E21  27955271.070 6  27955276.695 6  27955274.656 6  27955275.395 7     -3222.836 6     -2406.849 6     -2469.636 6     -2438.243 7 146905976.461 6 109702551.106 6 112564352.073 6 111133453.196 7        37.400          40.500          40.200          44.000
E24  28809623.094 6  28809625.492 6  28809623.734 6  28809625.074 6      2514.926 6      1880.797 6      1929.861 6      1905.330 6 151395591.305 6 113055155.564 6 116004417.021 6 114529786.890 6        36.900          37.900          39.100          41.800
E26  23717516.664 8  23717519.480 8  23717517.074 8  23717518.461 9      -553.695 8      -411.476 8      -422.210 8      -416.843 9 124636425.938 8  93072684.585 8  95500657.909 8  94286672.350 9        52.200          53.800          53.500          56.900
E31  25421157.055 7  25421162.059 8  25421159.910 8  25421161.332 8       611.391 7       461.989 8       474.041 8       468.015 8 133589077.886 7  99758096.167 8 102360470.814 8 101059284.597 8        46.800          49.400          49.300          52.400
E33  24824758.250 8  24824761.129 8  24824758.906 8  24824760.340 9      1433.102 8      1071.891 8      1099.854 8      1085.872 9 130455002.632 8  97417717.209 8  99959039.805 8  98688377.615 9        48.200          51.000          51.200          54.300
G01  23518902.938 6  23518911.207 3  23518911.316 6  23518910.684 7      3108.570 6      2424.491 3      2424.493 6      2323.472 7 123592660.886 6  96306012.326 3  96306008.299 6  92293265.251 7        37.700          22.500          40.700          46.800
G07  25034458.664 4                  25034465.309 5                     -1606.000 4                                                 131557022.031 4                 102511924.55115                        28.900                          31.000
G08  20530278.813 8  20530285.020 9  20530285.637 8  20530284.672 9      1048.695 8       822.035 9       822.035 8       787.783 9 107887335.680 8  84068114.227 9  84068116.223 8  80565279.281 9        50.500          55.800          51.100          55.900
G10  21475403.219 8  21475409.426 9  21475409.367 8  21475408.184 9     -1238.809 8      -958.559 9      -958.559 8      -918.619 9 112854026.122 8  87938240.877 9  87938231.882 8  84274144.012 9        51.300          54.100          48.800          54.200
G16  23007794.070 7  23007797.906 5                                     -3479.121 7     -2708.091 5                                 120906738.508 7  94213092.260 5                                        44.500          30.300
G21  21689303.500 7  21689307.012 6                                      1479.699 7      1156.380 6                                 113978154.168 7  88814103.604 6                                        47.400          36.900
G22  24509720.031 5  24509723.566 2                                      3737.813 5                                                 128799447.80815 100363225.43612                                        31.200          16.300
G23  23456518.250 6  23456522.609 4  23456522.492 7  23456525.895 7     -3042.762 6     -2367.139 4     -2367.138 7     -2268.509 7 123264844.830 6  96050553.782 4  96050570.785 7  92048481.720 7        40.000          26.200          42.600          46.600
G26  25754158.000 6  25754165.934 4  25754165.980 5  25754164.949 6     -3633.461 6     -2832.614 4     -2832.615 5     -2714.589 6 135339042.182 6 105459002.724 4 105459031.759 5 101064911.572 6        36.500          28.200          35.300          40.400
G27  20447761.133 8  20447767.297 9  20447767.422 8  20447767.211 9     -1092.867 8      -846.289 9      -846.289 8      -811.027 9 107453613.775 8  83730216.117 9  83730217.119 8  80241463.218 9        52.300          55.000          51.900          56.600
G30  25480150.203 4                  25480158.074 5  25480158.480 6      -690.570 4                      -531.985 5      -509.818 6                                 104336981.345 5  99989598.823 6        27.300                          30.900          36.300
G32  24557215.016 6  24557221.344 5  24557221.301 6  24557220.730 7      2751.633 6      2145.707 5      2145.707 6      2056.303 7 129049042.503 6 100557705.899 5 100557710.912 6  96367806.448 7        40.400          33.800          38.400          42.200
R01  21067006.383 7  21067004.977 7  21067009.996 6  21067010.840 6      3101.199 7      3110.464 7      2419.250 6      2419.250 6 112615270.668 7 112615283.677 7  87589640.342 6  87589640.368 6        44.800          43.900          40.800          40.200
R07  23627849.336 6  23627847.770 6  23627851.945 6  23627851.051 6     -3317.340 6     -3309.501 6     -2574.057 6     -2574.057 6 126481765.023 6 126481700.033 6  98374689.706 6  98374693.705 6        41.200          39.400          39.400          38.600
R08  21004667.195 7  21004666.484 7  21004668.910 7  21004668.648 7      -340.008 7      -326.242 7      -253.744 7      -253.744 7 112479035.292 7 112479037.288 7  87483703.394 7  87483720.401 7        46.600          45.500          45.900          45.700
R14  21397493.516 7  21397492.070 7  21397497.355 7  21397497.453 7     -2584.441 7     -2574.427 7     -2002.331 7     -2002.331 7 114060641.648 7 114060657.650 7  88713864.051 7  88713863.040 7        47.500          46.900          45.300          44.500
R15  21928232.555 7  21928232.770 7  21928236.234 7  21928236.469 7      1091.023 7      1104.017 7       858.679 7       858.680 7 117177828.468 7 117177865.462 7  91138308.041 7  91138317.037 7        46.400          45.000          43.200          42.200
R17  22533879.727 7  22533879.277 6  22533883.301 6  22533882.598 6      2834.031 7      2835.354 6      2205.275 6      2205.274 6 120583365.359 7 120583359.367 6  93787078.237 6  93787081.230 6        42.100          41.800          40.400          39.400
R23  20686574.047 8  20686573.035 7                                     -1771.555 8     -1767.631 7                                 110659247.975 8 110659326.968 7                                        48.400          46.900
R24  19808989.234 8  19808989.629 8  19808992.785 8  19808992.805 8       665.047 8       669.891 8       521.026 8       521.026 8 105927543.376 8 105927703.400 8  82388122.608 8  82388156.612 8        52.300          50.600          49.100          48.400
S36  37802826.688 7  37802818.266 7        -1.762 7        -1.139 7 198656696.566 7 148347269.303 7        44.500          46.500
> 2022 01 01 00 02 30.0000000  0 37
C05  39857622.664 5  39857612.090 6  39857617.543 6          .754 5          .710 6          .675 6 207549138.341 5 168650601.721 6 160490104.101 6        35.500          37.100          38.300
C06  41011410.094 5  41011397.441 5  41011405.016 5      1764.219 5      1434.929 5      1365.497 5 213557160.420 5 173532644.971 5 165135935.496 5        33.100          33.800          34.600
C16  41181098.703 5  41181088.215 5  41181097.879 5      1591.477 5      1294.854 5      1232.200 5 214440784.154 5 174250664.936 5 165819217.255 5        35.000          31.600          34.300
C20  25366898.898 7  25366881.727 7                      3409.074 7      2771.295 7                 132092099.026 7 107335645.100 7                        43.800          42.800
C27  23962052.836 7  23962043.480 7                     -2249.148 7     -1825.620 7                 124776732.689 7 101391294.824 7                        46.700          45.500
C29  23662683.359 7  23662673.367 7                      2262.895 7      1840.168 7                 123217822.775 7 100124547.126 7                        46.100          46.600
C30  21537580.703 8  21537573.520 8                       -72.711 8       -55.701 8                 112151865.803 8  91132610.690 8                        52.500          52.600
E01  25088964.344 7  25088968.988 8  25088966.719 8  25088967.996 9     -2215.965 7     -1650.979 8     -1694.049 8     -1672.514 9 131843401.089 7  98454507.659 8 101022875.399 8  99738691.641 9        47.400          51.000          50.600          54.700
E07  26611014.797 7  26611019.551 7  26611018.391 7  26611019.336 8      2125.613 7      1590.504 7      1631.995 7      1611.250 8 139841825.826 7 104427364.394 7 107151545.791 7 105789453.198 8        44.000          44.800          45.100          48.800
E08  25170071.164 6  25170073.188 7  25170071.203 7  25170073.066 7       -67.020 6       -44.758 7       -45.927 7       -45.343 7 132269626.004 6  98772789.078 7 101349463.627 7 100061125.463 7        41.900          43.100          43.200          47.400
E13  26591476.469 7  26591481.203 7  26591478.625 7  26591480.145 7     -2171.375 7     -1621.159 7     -1663.451 7     -1642.305 7 139739183.208 7 104350717.216 7 107072904.369 7 105711807.898 7        42.000          44.300          43.900          47.700
E21  27973668.266 5  27973674.418 6  27973671.820 6  27973672.813 7     -3222.453 5     -2406.504 6     -2469.283 6     -2437.894 7 147002655.202 5 109774746.241 6 112638430.570 6 111206590.006 7        35.800          40.900          40.700          44.700
E24  28795286.070 6  28795288.613 6  28795286.766 6  28795288.137 7      2507.637 6      1875.371 6      1924.293 6      1899.832 7 151320250.394 6 112998894.430 6 115946688.219 6 114472791.931 7        37.600          39.500          38.800          43.100
E26  23720691.242 8  23720694.195 8  23720691.660 8  23720693.047 9      -558.664 8      -415.258 8      -426.091 8      -420.675 9 124653108.491 8  93085142.331 8  95513440.647 8  94299292.596 9        51.500          53.400          53.700          56.700
E31  25417707.602 7  25417712.715 8  25417710.695 8  25417711.895 8       596.926 7       451.215 8       462.986 8       457.100 8 133570950.820 7  99744559.713 8 102346581.248 8 101045571.584 8        47.000          49.000          49.500          52.900
E33  24816589.672 7  24816592.656 8  24816590.289 8  24816591.742 9      1428.523 7      1068.509 8      1096.384 8      1082.446 9 130412076.448 7  97385661.935 8  99926148.297 8  98655904.224 9        47.400          51.100          50.700          54.400
G01  23501171.633 6  23501180.188 3  23501180.016 6  23501179.570 7      3103.223 6      2420.242 3      2420.240 6      2319.396 7 123499481.548 6  96233405.062 3  96233401.116 6  92223683.359 7        37.000          22.800          40.600          47.200
G07  25043657.711 5                  25043662.723 5                     -1616.418 5                     -1255.368 5                 131605353.841 5                 102549585.601 5                        31.600                          33.100
G08  20524326.375 8  20524332.926 9  20524333.445 8  20524332.262 9      1036.355 8       812.443 9       812.443 8       778.591 9 107856056.618 8  84043740.931 9  84043742.933 8  80541921.542 9        50.900          55.300          51.800          55.900
G10  21482524.422 8  21482530.402 9  21482530.168 8  21482529.137 8     -1255.980 8      -971.945 9      -971.945 8      -931.447 8 112891446.002 8  87967399.218 9  87967390.224 8  84302087.425 8        50.500          54.300          49.500          53.900
G16  23027675.492 7  23027679.918 5                                     -3486.301 7     -2713.767 5                                 121011218.549 7  94294505.273 5                                        43.300          30.400
G21  21680879.148 7  21680882.992 6                                      1471.246 7      1149.797 6                                 113933886.978 7  88779609.693 6                                        46.900          36.800
G22  24488388.836 5  24488391.641 2                                      3734.840 5                                                                                                                        32.300          17.400
G23  23473916.188 6  23473919.570 4  23473919.957 6  23473923.461 7     -3052.563 6     -2374.704 4     -2374.704 6     -2275.757 7 123356270.970 6  96121794.906 4  96121811.899 6  92116754.430 7        39.600          25.300          41.700          46.000
G26  25774890.563 6  25774898.594 4  25774897.863 5  25774897.598 6     -3630.078 6     -2829.910 4     -2829.910 5     -2711.995 6 135447993.750 6 105543900.015 4 105543929.048 5 101146271.425 6        36.400          26.500          34.800          39.400
G27  20454038.117 8  20454044.305 9  20454044.570 8  20454044.293 9     -1106.348 8      -856.788 9      -856.788 8      -821.089 9 107486600.124 8  83755919.750 9  83755920.752 8  80266095.872 9        50.900          55.100          52.300          56.700
G30  25484134.359 4                  25484141.281 4  25484143.195 6      -705.520 4                      -543.918 4      -521.210 6 133920159.95614                 104353297.53814 100005235.120 6        27.600                          28.600          38.100
